[
   {
      "name": "Nino\u00b4s Pizza",
      "place_id": "21001069",
      "lon": "12.2984669",
      "address": "Nino\u00b4s Pizza, Slotsgade, Hiller\u00f8d, Hiller\u00f8d Kommune, Region Hovedstaden, 3400, Danmark, European Union",
      "lat": "55.9326062",
      "type": "restaurant",
      "class": "amenity"
   },
   {
      "name": "El Castillio",
      "place_id": "19646907",
      "lon": "12.2984403",
      "address": "El Castillio, Slotsgade, Hiller\u00f8d, Hiller\u00f8d Kommune, Region Hovedstaden, 3400, Danmark, European Union",
      "lat": "55.9327203",
      "type": "restaurant",
      "class": "amenity"
   },
   {
      "name": "Jensens B\u00f8fhus",
      "place_id": "17926423",
      "lon": "12.2964227",
      "address": "Jensens B\u00f8fhus, Slotshusene, Hiller\u00f8d, Hiller\u00f8d Kommune, Region Hovedstaden, 3400, Danmark",
      "lat": "55.933249",
      "type": "restaurant",
      "class": "amenity"
   },
   {
      "name": "El Castillo\u2019s Cantina",
      "place_id": "18700948",
      "lon": "12.2981366",
      "address": "El Castillo\u2019s Cantina, Slotsgade, Hiller\u00f8d, Hiller\u00f8d Kommune, Region Hovedstaden, 3400, Danmark, European Union",
      "lat": "55.9330426",
      "type": "restaurant",
      "class": "amenity"
   },
   {
      "name": "Leonora Christine",
      "place_id": "5171671",
      "lon": "12.2991435",
      "address": "Leonora Christine, M\u00f8ntportvejen, Hiller\u00f8d, Hiller\u00f8d Kommune, Region Hovedstaden, 3400, Danmark",
      "lat": "55.9346232",
      "type": "restaurant",
      "class": "amenity"
   },
   {
      "name": "B\u00f8fhuset",
      "place_id": "20047764",
      "lon": "12.2984883",
      "address": "B\u00f8fhuset, Slotsgade, Hiller\u00f8d, Hiller\u00f8d Kommune, Region Hovedstaden, 3400, Danmark, European Union",
      "lat": "55.932471",
      "type": "restaurant",
      "class": "amenity"
   },
   {
      "name": "Nyu Sakura",
      "place_id": "8315629",
      "lon": "12.30331",
      "address": "Nyu Sakura, 5, Torvet, Hiller\u00f8d, Hiller\u00f8d Kommune, Region Hovedstaden, 3400, Danmark, European Union",
      "lat": "55.929164",
      "type": "restaurant",
      "class": "amenity"
   },
   {
      "name": "Restaurant Toldboden",
      "place_id": "8323171",
      "lon": "12.0562194",
      "address": "Restaurant Toldboden, 1A, F\u00e6rgevej, Amsterdamhusene, Kign\u00e6sbakkerne, Frederikssund, Frederikssund Kommune, Region Hovedstaden, 3600, Danmark, European Union",
      "lat": "55.8370405",
      "type": "restaurant",
      "class": "amenity"
   },
   {
      "name": "Ju Fu",
      "place_id": "7922031",
      "lon": "12.019791",
      "address": "Ju Fu, Classensgade, Frederiksv\u00e6rk, Halsn\u00e6s Kommune, Region Hovedstaden, 3300, Danmark",
      "lat": "55.9692981",
      "type": "restaurant",
      "class": "amenity"
   },
   {
      "name": "Le Papillon",
      "place_id": "19487289",
      "lon": "11.9641165",
      "address": "Le Papillon, Liselejevej, Liseleje, Halsn\u00e6s Kommune, Region Hovedstaden, 3360, Danmark",
      "lat": "56.0127556",
      "type": "restaurant",
      "class": "amenity"
   },
   {
      "name": "Lisestuen",
      "place_id": "19616755",
      "lon": "11.968541",
      "address": "Lisestuen, Liselejevej, Liseleje, Halsn\u00e6s Kommune, Region Hovedstaden, 3360, Danmark",
      "lat": "56.0129498",
      "type": "restaurant",
      "class": "amenity"
   },
   {
      "name": "Heaven Crane",
      "place_id": "18175958",
      "lon": "12.1939615",
      "address": "Heaven Crane, Vestergade, Helsinge, Gribskov Kommune, Region Hovedstaden, 3200, Danmark",
      "lat": "56.0224162",
      "type": "restaurant",
      "class": "amenity"
   },
   {
      "name": "SlotsBowl",
      "place_id": "18546972",
      "lon": "12.3120927",
      "address": "SlotsBowl, Skansevej, Hiller\u00f8d, Hiller\u00f8d Kommune, Region Hovedstaden, 3400, Danmark, European Union",
      "lat": "55.9342429",
      "type": "restaurant",
      "class": "amenity"
   },
   {
      "name": "K\u00f8benhavnsvej",
      "place_id": "80934690",
      "lon": "12.3121629987684",
      "address": "K\u00f8benhavnsvej, Hiller\u00f8d, Hiller\u00f8d Kommune, Region Hovedstaden, 3400, Danmark, European Union",
      "lat": "55.9339682809938",
      "type": "restaurant",
      "class": "amenity"
   },
   {
      "name": "P\u00e5lsj\u00f6 krog",
      "place_id": "7363619",
      "lon": "12.6781308",
      "address": "P\u00e5lsj\u00f6 krog, 151, Drottninggatan, Norr, Helsingborg, Sk\u00e5ne l\u00e4n, G\u00f6taland, 25439, Sverige",
      "lat": "56.0644966",
      "type": "restaurant",
      "class": "amenity"
   },
   {
      "name": "restaurant Rudegaard",
      "place_id": "15547634",
      "lon": "12.462652",
      "address": "restaurant Rudegaard, Kongevejen, \u00d8ver\u00f8d, Holte, Rudersdal Kommune, Region Hovedstaden, 2840, Danmark, European Union",
      "lat": "55.8249338",
      "type": "restaurant",
      "class": "amenity"
   },
   {
      "name": "Holte stadionrestaurant",
      "place_id": "14891780",
      "lon": "12.4628657",
      "address": "Holte stadionrestaurant, Kongevejen, \u00d8ver\u00f8d, Holte, Rudersdal Kommune, Region Hovedstaden, 2840, Danmark, European Union",
      "lat": "55.824053",
      "type": "restaurant",
      "class": "amenity"
   },
   {
      "name": "Spisehuset 3480",
      "place_id": "15976156",
      "lon": "12.3829804",
      "address": "Spisehuset 3480, Skovsvinget, Fredensborg, Fredensborg Kommune, Region Hovedstaden, 3480, Danmark, European Union",
      "lat": "55.972622",
      "type": "restaurant",
      "class": "amenity"
   },
   {
      "name": "Humleb\u00e6k Kro",
      "place_id": "10170617",
      "lon": "12.5414623",
      "address": "Humleb\u00e6k Kro, 2A, Humleb\u00e6k Strandvej, Humleb\u00e6k, Fredensborg Kommune, Region Hovedstaden, 3050, Danmark, European Union",
      "lat": "55.9724174",
      "type": "restaurant",
      "class": "amenity"
   },
   {
      "name": "Byens Restaurant & Pizza Aller\u00f8d",
      "place_id": "2108241",
      "lon": "12.3554678",
      "address": "Byens Restaurant & Pizza Aller\u00f8d, 4A, M.D. Madsens Vej, Aller\u00f8d, Aller\u00f8d Kommune, Region Hovedstaden, 3450, Danmark, European Union",
      "lat": "55.8708532",
      "type": "restaurant",
      "class": "amenity"
   },
   {
      "name": "Amarone",
      "place_id": "14693688",
      "lon": "12.3573887",
      "address": "Amarone, 3A, Amtsvej, Aller\u00f8d, Aller\u00f8d Kommune, Region Hovedstaden, 3450, Danmark, European Union",
      "lat": "55.8692644",
      "type": "restaurant",
      "class": "amenity"
   },
   {
      "name": "Nokken",
      "place_id": "5575976",
      "lon": "12.5481104",
      "address": "Nokken, Rungsted Havn, Rungsted, H\u00f8rsholm Kommune, Region Hovedstaden, 2960, Danmark",
      "lat": "55.8856967",
      "type": "restaurant",
      "class": "amenity"
   },
   {
      "name": "La Terrazza",
      "place_id": "8308228",
      "lon": "12.5230788",
      "address": "La Terrazza, Pennehave, Rungsted, H\u00f8rsholm Kommune, Region Hovedstaden, 2960, Danmark",
      "lat": "55.882701",
      "type": "restaurant",
      "class": "amenity"
   },
   {
      "name": "La Vela",
      "place_id": "7235396",
      "lon": "12.5692657",
      "address": "La Vela, Vedb\u00e6k Strandvej, Vedb\u00e6k, Rudersdal Kommune, Region Hovedstaden, 2942, Danmark, European Union",
      "lat": "55.8508456",
      "type": "restaurant",
      "class": "amenity"
   },
   {
      "name": "Cafe Rosenhuset",
      "place_id": "741590",
      "lon": "12.5684453",
      "address": "Cafe Rosenhuset, Vedb\u00e6k Strandvej, Vedb\u00e6k, Rudersdal Kommune, Region Hovedstaden, 2950, Danmark, European Union",
      "lat": "55.8519196",
      "type": "restaurant",
      "class": "amenity"
   },
   {
      "name": "Fransk Spisehus",
      "place_id": "16635684",
      "lon": "12.5641955",
      "address": "Fransk Spisehus, Vedb\u00e6k Stationsvej, Vedb\u00e6k, Rudersdal Kommune, Region Hovedstaden, 2950, Danmark, European Union",
      "lat": "55.8531345",
      "type": "restaurant",
      "class": "amenity"
   },
   {
      "name": "Restaurant Nautulus",
      "place_id": "7953728",
      "lon": "12.5703613",
      "address": "Restaurant Nautulus, Vedb\u00e6k Strandvej, Vedb\u00e6k, Rudersdal Kommune, Region Hovedstaden, 2942, Danmark, European Union",
      "lat": "55.8505265",
      "type": "restaurant",
      "class": "amenity"
   },
   {
      "name": "Marco Omo",
      "place_id": "1949522",
      "lon": "12.5463779",
      "address": "Marco Omo, 2, N\u00f8rre Torv, Esperg\u00e6rde, Helsing\u00f8r Kommune, Region Hovedstaden, 3060, Danmark",
      "lat": "55.9951451",
      "type": "restaurant",
      "class": "amenity"
   },
   {
      "name": "Skotterup Spiseri & Enotek",
      "place_id": "14229179",
      "lon": "12.5788701",
      "address": "Skotterup Spiseri & Enotek, Strandvejen, Esperg\u00e6rde, Helsing\u00f8r Kommune, Region Hovedstaden, 3070, Danmark, European Union",
      "lat": "56.005428",
      "type": "restaurant",
      "class": "amenity"
   },
   {
      "name": "GOSP",
      "place_id": "18958144",
      "lon": "12.57529",
      "address": "GOSP, Skodsborgvej, Skodsborg, Rudersdal Kommune, Region Hovedstaden, 2942, Danmark, European Union",
      "lat": "55.8210756",
      "type": "restaurant",
      "class": "amenity"
   },
   {
      "name": "Ristorante Boscaini",
      "place_id": "14788211",
      "lon": "12.4280534",
      "address": "Ristorante Boscaini, 7 A, Skolevej, Birker\u00f8d, Bistrup, Birker\u00f8d, Rudersdal Kommune, Region Hovedstaden, 3460, Danmark",
      "lat": "55.8416158",
      "type": "restaurant",
      "class": "amenity"
   },
   {
      "name": "j\u00e6gerhytten",
      "place_id": "14681446",
      "lon": "12.4378509",
      "address": "j\u00e6gerhytten, Bakkevej, Bistrup, Birker\u00f8d, Rudersdal Kommune, Region Hovedstaden, 3460, Danmark, European Union",
      "lat": "55.859954",
      "type": "restaurant",
      "class": "amenity"
   },
   {
      "name": "Bertrams B\u00f8fhus",
      "place_id": "176841",
      "lon": "12.4567659",
      "address": "Bertrams B\u00f8fhus, Havnevej, Hornb\u00e6k, Helsing\u00f8r Kommune, Region Hovedstaden, 3100, Danmark, European Union",
      "lat": "56.0905072",
      "type": "restaurant",
      "class": "amenity"
   },
   {
      "name": "Blovstr\u00f8d Kro",
      "place_id": "910284",
      "lon": "12.3847498",
      "address": "Blovstr\u00f8d Kro, Kongevejen, Blovstr\u00f8d, Aller\u00f8d Kommune, Region Hovedstaden, 3450, Danmark, European Union",
      "lat": "55.8649353",
      "type": "restaurant",
      "class": "amenity"
   },
   {
      "name": "La Pizza",
      "place_id": "6731875",
      "lon": "12.6548602",
      "address": "La Pizza, Serpentinv\u00e4gen, Norr, Lar\u00f6d, Helsingborg, Sk\u00e5ne l\u00e4n, G\u00f6taland, 252 84, Sverige",
      "lat": "56.0911904",
      "type": "restaurant",
      "class": "amenity"
   },
   {
      "name": "Trekosten",
      "place_id": "5310356",
      "lon": "12.5289711",
      "address": "Trekosten, 29, Niv\u00e5 Strandpark, Sletten, Fredensborg Kommune, Region Hovedstaden, 2990, Danmark",
      "lat": "55.9394652",
      "type": "restaurant",
      "class": "amenity"
   },
   {
      "name": "Bolettes G\u00e6stebud",
      "place_id": "10068356",
      "lon": "12.5435115",
      "address": "Bolettes G\u00e6stebud, 7, Gammel Strandvej, Krogerup, Fredensborg Kommune, Region Hovedstaden, 3050, Danmark, European Union",
      "lat": "55.9714448",
      "type": "restaurant",
      "class": "amenity"
   },
   {
      "name": "Fyrkroen",
      "place_id": "12075746",
      "lon": "12.349223",
      "address": "Fyrkroen, Fyrvejen, Nakkehoved, Munkerup, Gribskov Kommune, Region Hovedstaden, 3120, Danmark, European Union",
      "lat": "56.1191973",
      "type": "restaurant",
      "class": "amenity"
   },
   {
      "name": "Fiskboden",
      "place_id": "4621110",
      "lon": "12.6727694",
      "address": "Fiskboden, Kyrkbacken, Mossen, Landskrona, Sk\u00e5ne l\u00e4n, G\u00f6taland, 26013, Sverige",
      "lat": "55.9101204",
      "type": "restaurant",
      "class": "amenity"
   },
   {
      "name": "Hamnkrogen",
      "place_id": "3754297",
      "lon": "12.6741681",
      "address": "Hamnkrogen, Kyrkbacken, Landskrona, Sk\u00e5ne l\u00e4n, G\u00f6taland, 26013, Sverige, European Union",
      "lat": "55.9103633",
      "type": "restaurant",
      "class": "amenity"
   },
   {
      "name": "Yoshi Sushi",
      "place_id": "7689228",
      "lon": "12.090659",
      "address": "Yoshi Sushi, Algade, Himmelev, Roskilde, Roskilde Kommune, Region Sj\u00e6lland, 4000, Danmark, European Union",
      "lat": "55.640542",
      "type": "restaurant",
      "class": "amenity"
   },
   {
      "name": "Snekken",
      "place_id": "9912223",
      "lon": "12.0779752",
      "address": "Snekken, Vindeboder 16, Vindeboder, Sankt J\u00f8rgensbjerg, Himmelev, Roskilde, Roskilde Kommune, Region Sj\u00e6lland, 4000 Roskilde, Danmark, European Union",
      "lat": "55.6499171",
      "type": "restaurant",
      "class": "amenity"
   },
   {
      "name": "Gringos",
      "place_id": "7587831",
      "lon": "12.088251",
      "address": "Gringos, Store Gr\u00e5br\u00f8drestr\u00e6de, Sankt J\u00f8rgensbjerg, Himmelev, Roskilde, Roskilde Kommune, Region Sj\u00e6lland, 4000, Danmark, European Union",
      "lat": "55.6402161",
      "type": "restaurant",
      "class": "amenity"
   },
   {
      "name": "Store B\u00f8rs",
      "place_id": "19475771",
      "lon": "12.0769599",
      "address": "Store B\u00f8rs, Havnevej 43, Havnevej, Sankt J\u00f8rgensbjerg, Himmelev, Roskilde, Roskilde Kommune, Region Sj\u00e6lland, 4000 Roskilde, Danmark, European Union",
      "lat": "55.6496653",
      "type": "restaurant",
      "class": "amenity"
   },
   {
      "name": "Lotus",
      "place_id": "7750868",
      "lon": "12.087982",
      "address": "Lotus, Store Gr\u00e5br\u00f8drestr\u00e6de, Sankt J\u00f8rgensbjerg, Himmelev, Roskilde, Roskilde Kommune, Region Sj\u00e6lland, 4000, Danmark, European Union",
      "lat": "55.6405217",
      "type": "restaurant",
      "class": "amenity"
   },
   {
      "name": "Bella Napoli Pizzaria",
      "place_id": "1986240",
      "lon": "12.0708078",
      "address": "Bella Napoli Pizzaria, 4B, Helligkorsvej, Sankt J\u00f8rgensbjerg, Himmelev, Roskilde, Roskilde Kommune, Region Sj\u00e6lland, 4000, Danmark, European Union",
      "lat": "55.6397803",
      "type": "restaurant",
      "class": "amenity"
   },
   {
      "name": "Peking Grill",
      "place_id": "13244926",
      "lon": "12.0688187",
      "address": "Peking Grill, 12, Helligkorsvej, Sankt J\u00f8rgensbjerg, Himmelev, Roskilde, Roskilde Kommune, Region Sj\u00e6lland, 4000, Danmark, European Union",
      "lat": "55.6391228",
      "type": "restaurant",
      "class": "amenity"
   },
   {
      "name": "Vagabondo's Restaurant",
      "place_id": "7319508",
      "lon": "12.0893923",
      "address": "Vagabondo's Restaurant, Hestetorvet, Sankt J\u00f8rgensbjerg, Himmelev, Roskilde, Roskilde Kommune, Region Sj\u00e6lland, 4000, Danmark, European Union",
      "lat": "55.6402175",
      "type": "restaurant",
      "class": "amenity"
   },
   {
      "name": "Roskilde Hallerne",
      "place_id": "13699819",
      "lon": "12.0689635",
      "address": "Roskilde Hallerne, Ved Hallen, Sankt J\u00f8rgensbjerg, Himmelev, Roskilde, Roskilde Kommune, Region Sj\u00e6lland, 4000, Danmark, European Union",
      "lat": "55.6359055",
      "type": "restaurant",
      "class": "amenity"
   },
   {
      "name": "Sengel\u00f8se Kro",
      "place_id": "1813205",
      "lon": "12.2573108",
      "address": "Sengel\u00f8se Kro, 18, Landsbygaden, H\u00f8je Taastrup, Sengel\u00f8se, H\u00f8je-Taastrup Kommune, Region Hovedstaden, 2630, Danmark",
      "lat": "55.679959",
      "type": "restaurant",
      "class": "amenity"
   },
   {
      "name": "Asien Garden",
      "place_id": "1567167",
      "lon": "12.3021439",
      "address": "Asien Garden, Taastrup Hovedgade, H\u00f8je Taastrup, T\u00e5strup, H\u00f8je-Taastrup Kommune, Region Hovedstaden, 2630, Danmark",
      "lat": "55.6500169",
      "type": "restaurant",
      "class": "amenity"
   },
   {
      "name": "Capriccio",
      "place_id": "1479230",
      "lon": "12.3013127",
      "address": "Capriccio, Fredensvej, H\u00f8je Taastrup, T\u00e5strup, H\u00f8je-Taastrup Kommune, Region Hovedstaden, 2630, Danmark",
      "lat": "55.6499698",
      "type": "restaurant",
      "class": "amenity"
   },
   {
      "name": "Gersh\u00f8j Kro",
      "place_id": "14237550",
      "lon": "11.9793318",
      "address": "Gersh\u00f8j Kro, 14, Gersh\u00f8j Havnevej, Gersh\u00f8j, Lejre Kommune, Region Sj\u00e6lland, 4070, Danmark, European Union",
      "lat": "55.7162226",
      "type": "restaurant",
      "class": "amenity"
   },
   {
      "name": "Sushi",
      "place_id": "14012058",
      "lon": "12.2014291",
      "address": "Sushi, Hovedgaden, Hedehusene, H\u00f8je-Taastrup Kommune, Region Hovedstaden, 2640, Danmark, European Union",
      "lat": "55.6499228",
      "type": "restaurant",
      "class": "amenity"
   },
   {
      "name": "Bollinis Familierestaurant",
      "place_id": "14694215",
      "lon": "12.1977652",
      "address": "Bollinis Familierestaurant, Hovedgaden, Hedehusene, H\u00f8je-Taastrup Kommune, Region Hovedstaden, 2640, Danmark",
      "lat": "55.6493083",
      "type": "restaurant",
      "class": "amenity"
   },
   {
      "name": "Kinesisk",
      "place_id": "14329332",
      "lon": "12.2017188",
      "address": "Kinesisk, Hovedgaden, Hedehusene, H\u00f8je-Taastrup Kommune, Region Hovedstaden, 2640, Danmark, European Union",
      "lat": "55.64995",
      "type": "restaurant",
      "class": "amenity"
   },
   {
      "name": "La Belinda",
      "place_id": "1071338",
      "lon": "12.1736215",
      "address": "La Belinda, Tingstedet, Stenl\u00f8se, \u00d8lstykke-Stenl\u00f8se, Egedal Kommune, Region Hovedstaden, 3650, Danmark, European Union",
      "lat": "55.7813287",
      "type": "restaurant",
      "class": "amenity"
   },
   {
      "name": "Huang Cheng",
      "place_id": "15219800",
      "lon": "12.1568846",
      "address": "Huang Cheng, 1, \u00d8rnebjergvej, \u00d8lstykke, Skenkels\u00f8, Egedal Kommune, Region Hovedstaden, 3650, Danmark, European Union",
      "lat": "55.7936238",
      "type": "restaurant",
      "class": "amenity"
   },
   {
      "name": "Ny Asien",
      "place_id": "10425473",
      "lon": "12.0973142",
      "address": "Ny Asien, 10, Strandpromenaden, Jyllinge, Roskilde Kommune, Region Sj\u00e6lland, 4040, Danmark, European Union",
      "lat": "55.7445326",
      "type": "restaurant",
      "class": "amenity"
   },
   {
      "name": "Svogerslev Kro",
      "place_id": "12839545",
      "lon": "12.0173812",
      "address": "Svogerslev Kro, Svogerslev Hovedgade, Svogerslev, Roskilde Kommune, Region Sj\u00e6lland, Danmark, European Union",
      "lat": "55.6341763",
      "type": "restaurant",
      "class": "amenity"
   },
   {
      "name": "Forsvarets Sundhedstjeneste Kantine",
      "place_id": "7059364",
      "lon": "12.1129244",
      "address": "Forsvarets Sundhedstjeneste Kantine, Skalstrupvej, Sall\u00f8v, Roskilde Kommune, Region Sj\u00e6lland, 4621, Danmark, European Union",
      "lat": "55.5843376",
      "type": "restaurant",
      "class": "amenity"
   },
   {
      "name": "Jyllinge Center Pizza",
      "place_id": "641608",
      "lon": "12.108663",
      "address": "Jyllinge Center Pizza, 37, Jyllingecentret, Jyllinge, Roskilde Kommune, Region Sj\u00e6lland, 4040, Danmark, European Union",
      "lat": "55.7501284",
      "type": "restaurant",
      "class": "amenity"
   },
   {
      "name": "Pizzaria Juventus Steakhouse",
      "place_id": "13667704",
      "lon": "12.0159729",
      "address": "Pizzaria Juventus Steakhouse, Svogerslev Hovedgade, Svogerslev, Roskilde Kommune, Region Sj\u00e6lland, Danmark, European Union",
      "lat": "55.6336116",
      "type": "restaurant",
      "class": "amenity"
   },
   {
      "name": "Vigen",
      "place_id": "135725",
      "lon": "12.082014",
      "address": "Vigen, Bauneh\u00f8jvej, Himmelev, Veddelev, Roskilde Kommune, Region Sj\u00e6lland, 4000, Danmark, European Union",
      "lat": "55.6735017",
      "type": "restaurant",
      "class": "amenity"
   },
   {
      "name": "79",
      "place_id": "7034332",
      "lon": "12.0705533",
      "address": "79, Fiskervejen, Veddelev, Himmelev, Veddelev, Roskilde Kommune, Region Sj\u00e6lland, 4000, Danmark, European Union",
      "lat": "55.6787416",
      "type": "restaurant",
      "class": "amenity"
   },
   {
      "name": "Running Chopsticks",
      "place_id": "12590602",
      "lon": "12.2545865",
      "address": "Running Chopsticks, Karlslunde Strandvej, Karlslunde, Greve Kommune, Region Sj\u00e6lland, 2690, Danmark, European Union",
      "lat": "55.5576421",
      "type": "restaurant",
      "class": "amenity"
   },
   {
      "name": "Monarch Karlslunde Vest",
      "place_id": "949667",
      "lon": "12.2293303",
      "address": "Monarch Karlslunde Vest, Karlslunde Rasteplads, Karlslunde Landsby, Greve Kommune, Region Sj\u00e6lland, 2690, Danmark",
      "lat": "55.5613156",
      "type": "restaurant",
      "class": "amenity"
   },
   {
      "name": "Monarch Karlslunde \u00d8st",
      "place_id": "990625",
      "lon": "12.2310263",
      "address": "Monarch Karlslunde \u00d8st, Karlslunde Rasteplads, Karlslunde Landsby, Greve Kommune, Region Sj\u00e6lland, 2690, Danmark",
      "lat": "55.5601046",
      "type": "restaurant",
      "class": "amenity"
   },
   {
      "name": "S\u00f8nderby kro",
      "place_id": "96615461",
      "lon": "12.030031620045",
      "address": "S\u00f8nderby kro, 2, S\u00f8nderby Bro, S\u00f8nderby, Frederikssund Kommune, Region Hovedstaden, 4050, Danmark",
      "lat": "55.7370434",
      "type": "restaurant",
      "class": "amenity"
   },
   {
      "name": "Big Due",
      "place_id": "8297074",
      "lon": "12.3768477",
      "address": "Big Due, Frederiksborgvej, Farum, Fures\u00f8 Kommune, Region Hovedstaden, 3520, Danmark, European Union",
      "lat": "55.8118328",
      "type": "restaurant",
      "class": "amenity"
   },
   {
      "name": "Fures\u00f8 Marina",
      "place_id": "6902727",
      "lon": "12.3863644",
      "address": "Fures\u00f8 Marina, Frederiksborgvej, N\u00f8rreskoven, V\u00e6rl\u00f8se, Fures\u00f8 Kommune, Region Hovedstaden, 3520, Danmark, European Union",
      "lat": "55.8031158",
      "type": "restaurant",
      "class": "amenity"
   },
   {
      "name": "Ristorante Atlantico",
      "place_id": "8310709",
      "lon": "12.3736697",
      "address": "Ristorante Atlantico, Bymidten, V\u00e6rl\u00f8se, Fures\u00f8 Kommune, Region Hovedstaden, 3500, Danmark",
      "lat": "55.7846392",
      "type": "restaurant",
      "class": "amenity"
   },
   {
      "name": "Hai Long",
      "place_id": "8238613",
      "lon": "12.3728645",
      "address": "Hai Long, 58, Bymidten, V\u00e6rl\u00f8se, Fures\u00f8 Kommune, Region Hovedstaden, 3500, Danmark, European Union",
      "lat": "55.7830747",
      "type": "restaurant",
      "class": "amenity"
   },
   {
      "name": "Mediterraneo",
      "place_id": "980115",
      "lon": "12.3699954",
      "address": "Mediterraneo, Ballerupvej, V\u00e6rl\u00f8se, Fures\u00f8 Kommune, Region Hovedstaden, 3500, Danmark",
      "lat": "55.7812525",
      "type": "restaurant",
      "class": "amenity"
   },
   {
      "name": "Lady - Vagabonden",
      "place_id": "12636214",
      "lon": "12.3364617",
      "address": "Lady - Vagabonden, \u00d8sterh\u00f8j Bygade, Jonstrup, Ballerup Kommune, Region Hovedstaden, 2760, Danmark",
      "lat": "55.7496018",
      "type": "restaurant",
      "class": "amenity"
   },
   {
      "name": "Bryggeri Skovlyst",
      "place_id": "12116792",
      "lon": "12.3838818",
      "address": "Bryggeri Skovlyst, Ravnehusvej, Hareskovby, Fures\u00f8 Kommune, Region Hovedstaden, 3500, Danmark, European Union",
      "lat": "55.7628",
      "type": "restaurant",
      "class": "amenity"
   },
   {
      "name": "Nybro Kro",
      "place_id": "7179728",
      "lon": "12.4694712",
      "address": "Nybro Kro, Nybrovej, Bagsv\u00e6rd, Gladsaxe Kommune, Region Hovedstaden, 2830, Danmark, European Union",
      "lat": "55.7741161",
      "type": "restaurant",
      "class": "amenity"
   },
   {
      "name": "Cafe Sisko",
      "place_id": "1026631",
      "lon": "12.4561986",
      "address": "Cafe Sisko, Bueg\u00e5rden, Bagsv\u00e6rd, Gladsaxe, Gladsaxe Kommune, Region Hovedstaden, 2880, Danmark, European Union",
      "lat": "55.7603605",
      "type": "restaurant",
      "class": "amenity"
   },
   {
      "name": "Kings kinesiske mad & sushi",
      "place_id": "4712767",
      "lon": "12.4799214",
      "address": "Kings kinesiske mad & sushi, Buddinge Hovedgade, Bagsv\u00e6rd, Gladsaxe, Gladsaxe Kommune, Region Hovedstaden, 2860, Danmark, European Union",
      "lat": "55.7476717",
      "type": "restaurant",
      "class": "amenity"
   },
   {
      "name": "V\u00e6rebro Pizza & Steakhouse",
      "place_id": "16301714",
      "lon": "12.4395147",
      "address": "V\u00e6rebro Pizza & Steakhouse, 72, V\u00e6rebrovej, Bagsv\u00e6rd, Gladsaxe, Gladsaxe Kommune, Region Hovedstaden, 2880, Danmark, European Union",
      "lat": "55.7580856",
      "type": "restaurant",
      "class": "amenity"
   },
   {
      "name": "Love Sushi",
      "place_id": "8600373",
      "lon": "12.4565296",
      "address": "Love Sushi, 116 N, Bagsv\u00e6rd Hovedgade, Bagsv\u00e6rd, Gladsaxe, Gladsaxe Kommune, Region Hovedstaden, 2880, Danmark, European Union",
      "lat": "55.760591",
      "type": "restaurant",
      "class": "amenity"
   },
   {
      "name": "Bella Rosa",
      "place_id": "14635372",
      "lon": "12.4510273",
      "address": "Bella Rosa, 156, Bagsv\u00e6rd Hovedgade, Bagsv\u00e6rd, Gladsaxe, Gladsaxe Kommune, Region Hovedstaden, 2880, Danmark, European Union",
      "lat": "55.7613571",
      "type": "restaurant",
      "class": "amenity"
   },
   {
      "name": "Shalimar",
      "place_id": "1026649",
      "lon": "12.4601928",
      "address": "Shalimar, Bagsv\u00e6rd Hovedgade, Bagsv\u00e6rd, Gladsaxe, Gladsaxe Kommune, Region Hovedstaden, 2880, Danmark, European Union",
      "lat": "55.7576235",
      "type": "restaurant",
      "class": "amenity"
   },
   {
      "name": "Fei Hao",
      "place_id": "8590316",
      "lon": "12.4515519",
      "address": "Fei Hao, 154, Bagsv\u00e6rd Hovedgade, Bagsv\u00e6rd, Gladsaxe, Gladsaxe Kommune, Region Hovedstaden, 2880, Danmark, European Union",
      "lat": "55.7612561",
      "type": "restaurant",
      "class": "amenity"
   },
   {
      "name": "Nalymit Thaik\u00f8kken",
      "place_id": "14626187",
      "lon": "12.455891",
      "address": "Nalymit Thaik\u00f8kken, 126, Bagsv\u00e6rd Hovedgade, Bagsv\u00e6rd, Gladsaxe, Gladsaxe Kommune, Region Hovedstaden, 2880, Danmark, European Union",
      "lat": "55.7603932",
      "type": "restaurant",
      "class": "amenity"
   },
   {
      "name": "La Vecchia Enoteca",
      "place_id": "5089912",
      "lon": "12.478456",
      "address": "La Vecchia Enoteca, \u00d8ver\u00f8dvej, S\u00f8ller\u00f8d, Gammel Holte, Rudersdal Kommune, Region Hovedstaden, 2840, Danmark, European Union",
      "lat": "55.8130358",
      "type": "restaurant",
      "class": "amenity"
   },
   {
      "name": "El Guapo",
      "place_id": "5131933",
      "lon": "12.4735722",
      "address": "El Guapo, \u00d8ver\u00f8dvej, \u00d8ver\u00f8d, Holte, Rudersdal Kommune, Region Hovedstaden, 2840, Danmark, European Union",
      "lat": "55.8115793",
      "type": "restaurant",
      "class": "amenity"
   },
   {
      "name": "Spice & Rice",
      "place_id": "6370541",
      "lon": "12.4697041",
      "address": "Spice & Rice, Virumvej, Virum, Lyngby-Taarb\u00e6k Kommune, Region Hovedstaden, 2830, Danmark, European Union",
      "lat": "55.7886252",
      "type": "restaurant",
      "class": "amenity"
   },
   {
      "name": "Shangri La",
      "place_id": "994203",
      "lon": "12.4843267",
      "address": "Shangri La, Kongevejen, Virum, Lyngby-Taarb\u00e6k Kommune, Region Hovedstaden, 2830, Danmark, European Union",
      "lat": "55.7939142",
      "type": "restaurant",
      "class": "amenity"
   },
   {
      "name": "Fredriksdal fribad",
      "place_id": "18883774",
      "lon": "12.4447234",
      "address": "Fredriksdal fribad, Virum Vandvej, Virum, Lyngby-Taarb\u00e6k Kommune, Region Hovedstaden, 2830, Danmark, European Union",
      "lat": "55.7853979",
      "type": "restaurant",
      "class": "amenity"
   },
   {
      "name": "Fei He",
      "place_id": "18189148",
      "lon": "12.3871457",
      "address": "Fei He, Diget, Ejby, Glostrup, Glostrup Kommune, Region Hovedstaden, 2600, Danmark, European Union",
      "lat": "55.6680214",
      "type": "restaurant",
      "class": "amenity"
   },
   {
      "name": "Restaurant Ankara",
      "place_id": "8809470",
      "lon": "12.3607416",
      "address": "Restaurant Ankara, 2, Centrumgaden, Ballerup, Ballerup Kommune, Region Hovedstaden, 2750, Danmark, European Union",
      "lat": "55.7319534",
      "type": "restaurant",
      "class": "amenity"
   },
   {
      "name": "Ba-Le",
      "place_id": "3575022",
      "lon": "12.3598513",
      "address": "Ba-Le, Centrumgaden, Ballerup, Ballerup Kommune, Region Hovedstaden, 2750, Danmark, European Union",
      "lat": "55.7290411",
      "type": "restaurant",
      "class": "amenity"
   },
   {
      "name": "Pascal",
      "place_id": "11885672",
      "lon": "12.3895376",
      "address": "Pascal, Lautrupvang, Skovlunde, Ballerup Kommune, Region Hovedstaden, 2740, Danmark, European Union",
      "lat": "55.7313398",
      "type": "restaurant",
      "class": "amenity"
   },
   {
      "name": "La Candela",
      "place_id": "5561150",
      "lon": "12.385683",
      "address": "La Candela, 129A, Lilletoften, Skovlunde, Ballerup Kommune, Region Hovedstaden, 2740, Danmark",
      "lat": "55.7227872",
      "type": "restaurant",
      "class": "amenity"
   },
   {
      "name": "DTU Ballerup Kantine",
      "place_id": "11383947",
      "lon": "12.3975144",
      "address": "DTU Ballerup Kantine, Lautrupvang, Skovlunde, Ballerup Kommune, Region Hovedstaden, 2740, Danmark",
      "lat": "55.731296",
      "type": "restaurant",
      "class": "amenity"
   },
   {
      "name": "Restaurant Kongemosen",
      "place_id": "18174423",
      "lon": "12.3204795",
      "address": "Restaurant Kongemosen, Sm\u00f8rum Parkvej, Sm\u00f8rumnedre, Egedal Kommune, Region Hovedstaden, 2760, Danmark, European Union",
      "lat": "55.7414567",
      "type": "restaurant",
      "class": "amenity"
   },
   {
      "name": "Cafe Vik",
      "place_id": "13165699",
      "lon": "12.4834804",
      "address": "Cafe Vik, Helga Larsens Plads, Vanl\u00f8se, K\u00f8benhavn, K\u00f8benhavns Kommune, Region Hovedstaden, 2720, Danmark, European Union",
      "lat": "55.6845809",
      "type": "restaurant",
      "class": "amenity"
   },
   {
      "name": "Thai & Sushi",
      "place_id": "1382000",
      "lon": "12.4884507",
      "address": "Thai & Sushi, Bramslykkevej, Vanl\u00f8se, K\u00f8benhavn, K\u00f8benhavns Kommune, Region Hovedstaden, 2500, Danmark, European Union",
      "lat": "55.6719753",
      "type": "restaurant",
      "class": "amenity"
   },
   {
      "name": "La Belinda",
      "place_id": "937122",
      "lon": "12.4712907",
      "address": "La Belinda, Frederikssundsvej, Br\u00f8nsh\u00f8j, K\u00f8benhavn, K\u00f8benhavns Kommune, Region Hovedstaden, 2700, Danmark, European Union",
      "lat": "55.7119996",
      "type": "restaurant",
      "class": "amenity"
   },
   {
      "name": "Ristorante Garda",
      "place_id": "18771134",
      "lon": "12.4880073",
      "address": "Ristorante Garda, 52, Vigerslevvej, Vanl\u00f8se, K\u00f8benhavn, K\u00f8benhavns Kommune, Region Hovedstaden, 2500, Danmark, European Union",
      "lat": "55.668487",
      "type": "restaurant",
      "class": "amenity"
   },
   {
      "name": "Kreta",
      "place_id": "1019964",
      "lon": "12.483877",
      "address": "Kreta, Jyllingevej, Vanl\u00f8se, K\u00f8benhavn, K\u00f8benhavns Kommune, Region Hovedstaden, 2720, Danmark, European Union",
      "lat": "55.6919324",
      "type": "restaurant",
      "class": "amenity"
   },
   {
      "name": "Armando\u2019s Caf\u00e9 Pizza Bar",
      "place_id": "17562116",
      "lon": "12.4879614",
      "address": "Armando\u2019s Caf\u00e9 Pizza Bar, 32, Jyllingevej, Vanl\u00f8se, K\u00f8benhavn, K\u00f8benhavns Kommune, Region Hovedstaden, 2720, Danmark, European Union",
      "lat": "55.692865",
      "type": "restaurant",
      "class": "amenity"
   },
   {
      "name": "Indian Flavours",
      "place_id": "16948465",
      "lon": "12.4855936",
      "address": "Indian Flavours, Jyllingevej, Vanl\u00f8se, K\u00f8benhavn, K\u00f8benhavns Kommune, Region Hovedstaden, 2720, Danmark, European Union",
      "lat": "55.6923602",
      "type": "restaurant",
      "class": "amenity"
   },
   {
      "name": "Xin Hua",
      "place_id": "1324625",
      "lon": "12.492018",
      "address": "Xin Hua, Havdrupvej, Br\u00f8nsh\u00f8j, K\u00f8benhavn, K\u00f8benhavns Kommune, Region Hovedstaden, 2700, Danmark, European Union",
      "lat": "55.7053021",
      "type": "restaurant",
      "class": "amenity"
   },
   {
      "name": "Asia House",
      "place_id": "15221959",
      "lon": "12.4908804",
      "address": "Asia House, 3, Vanl\u00f8se Torv, Vanl\u00f8se, K\u00f8benhavn, K\u00f8benhavns Kommune, Region Hovedstaden, 2720, Danmark, European Union",
      "lat": "55.6876943",
      "type": "restaurant",
      "class": "amenity"
   },
   {
      "name": "Cafe Rose",
      "place_id": "1505373",
      "lon": "12.490358",
      "address": "Cafe Rose, Vanl\u00f8se Torv, Vanl\u00f8se, K\u00f8benhavn, K\u00f8benhavns Kommune, Region Hovedstaden, 2720, Danmark, European Union",
      "lat": "55.6876668",
      "type": "restaurant",
      "class": "amenity"
   },
   {
      "name": "Que Pasa",
      "place_id": "955389",
      "lon": "12.4869852",
      "address": "Que Pasa, Bogholder All\u00e9, Vanl\u00f8se, K\u00f8benhavn, K\u00f8benhavns Kommune, Region Hovedstaden, 2720, Danmark, European Union",
      "lat": "55.6843554",
      "type": "restaurant",
      "class": "amenity"
   },
   {
      "name": "Ristorante Corsica",
      "place_id": "1479911",
      "lon": "12.4934523",
      "address": "Ristorante Corsica, Jyllingevej, Vanl\u00f8se, K\u00f8benhavn, K\u00f8benhavns Kommune, Region Hovedstaden, 2720, Danmark, European Union",
      "lat": "55.6939277",
      "type": "restaurant",
      "class": "amenity"
   },
   {
      "name": "Dragon Palace",
      "place_id": "987355",
      "lon": "12.4580781",
      "address": "Dragon Palace, Roskildevej, R\u00f8dovre, R\u00f8dovre Kommune, Region Hovedstaden, 2610, Danmark, European Union",
      "lat": "55.6714579",
      "type": "restaurant",
      "class": "amenity"
   },
   {
      "name": "Damhuskroen",
      "place_id": "5536031",
      "lon": "12.473922",
      "address": "Damhuskroen, 244, Roskildevej, R\u00f8dovre, R\u00f8dovre Kommune, Region Hovedstaden, 2720, Danmark, European Union",
      "lat": "55.672951",
      "type": "restaurant",
      "class": "amenity"
   },
   {
      "name": "Kina Cafeteria & Grill",
      "place_id": "19702516",
      "lon": "12.4422147",
      "address": "Kina Cafeteria & Grill, Herlev Hovedgade, Herlevhuse, Herlev, Herlev Kommune, Region Hovedstaden, 2730, Danmark, European Union",
      "lat": "55.722767",
      "type": "restaurant",
      "class": "amenity"
   },
   {
      "name": "McDonalds",
      "place_id": "17531891",
      "lon": "12.4376682",
      "address": "McDonalds, Mileparken, Herlev, Herlev Kommune, Region Hovedstaden, 2730, Danmark, European Union",
      "lat": "55.7166061",
      "type": "restaurant",
      "class": "amenity"
   },
   {
      "name": "Peder Lieps Hus",
      "place_id": "6044993",
      "lon": "12.5772202",
      "address": "Peder Lieps Hus, Dyrehavsbakken, Lyngby-Taarb\u00e6k Kommune, Region Hovedstaden, 2930, Danmark, European Union",
      "lat": "55.7774467",
      "type": "restaurant",
      "class": "amenity"
   },
   {
      "name": "Cafe Victoria",
      "place_id": "933727",
      "lon": "12.5739711",
      "address": "Cafe Victoria, Ordrupvej, Charlottenlund, Klampenborg, Gentofte Kommune, Region Hovedstaden, 2920, Danmark, European Union",
      "lat": "55.7611704",
      "type": "restaurant",
      "class": "amenity"
   },
   {
      "name": "Cafe M",
      "place_id": "14531216",
      "lon": "12.4945109",
      "address": "Cafe M, 270, Buddingevej, S\u00f8borg, Gladsaxe, Gladsaxe Kommune, Region Hovedstaden, 2860, Danmark, European Union",
      "lat": "55.7469725",
      "type": "restaurant",
      "class": "amenity"
   },
   {
      "name": "Post Pub",
      "place_id": "975130",
      "lon": "12.5053408",
      "address": "Post Pub, Gammel Jernbanevej, Kongens Lyngby, Lyngby-Taarb\u00e6k Kommune, Region Hovedstaden, DK-2800, Danmark, European Union",
      "lat": "55.7689224",
      "type": "restaurant",
      "class": "amenity"
   },
   {
      "name": "Big Mamma's",
      "place_id": "5243565",
      "lon": "12.4996816",
      "address": "Big Mamma's, Sorgenfrivej, Kongens Lyngby, Lyngby-Taarb\u00e6k Kommune, Region Hovedstaden, DK-2800, Danmark, European Union",
      "lat": "55.7708451",
      "type": "restaurant",
      "class": "amenity"
   },
   {
      "name": "Kantine 342",
      "place_id": "19136175",
      "lon": "12.5170853",
      "address": "Kantine 342, \u00d8rsteds Plads, Kongens Lyngby, Lyngby-Taarb\u00e6k Kommune, Region Hovedstaden, 2800, Danmark, European Union",
      "lat": "55.7823608",
      "type": "restaurant",
      "class": "amenity"
   },
   {
      "name": "sticks'n'sushi",
      "place_id": "3621493",
      "lon": "12.5058079",
      "address": "sticks'n'sushi, Baltzers Passage, Kongens Lyngby, Lyngby-Taarb\u00e6k Kommune, Region Hovedstaden, DK-2800, Danmark, European Union",
      "lat": "55.7701814",
      "type": "restaurant",
      "class": "amenity"
   },
   {
      "name": "Gordion",
      "place_id": "9352370",
      "lon": "12.5015934",
      "address": "Gordion, Ulrikkenborg Plads, Kongens Lyngby, Lyngby-Taarb\u00e6k Kommune, Region Hovedstaden, DK-2800, Danmark, European Union",
      "lat": "55.7677512",
      "type": "restaurant",
      "class": "amenity"
   },
   {
      "name": "Kantine 358",
      "place_id": "1700108",
      "lon": "12.5176395",
      "address": "Kantine 358, Akademivej, Kongens Lyngby, Lyngby-Taarb\u00e6k Kommune, Region Hovedstaden, 2800, Danmark, European Union",
      "lat": "55.7800725",
      "type": "restaurant",
      "class": "amenity"
   },
   {
      "name": "Hovedkantinen",
      "place_id": "1542044",
      "lon": "12.5243033",
      "address": "Hovedkantinen, Studentertorvet, Kongens Lyngby, Lyngby-Taarb\u00e6k Kommune, Region Hovedstaden, 2800, Danmark, European Union",
      "lat": "55.786691",
      "type": "restaurant",
      "class": "amenity"
   },
   {
      "name": "Faculty Club",
      "place_id": "7083561",
      "lon": "12.5238487",
      "address": "Faculty Club, Anker Engelunds Vej, Kongens Lyngby, Lyngby-Taarb\u00e6k Kommune, Region Hovedstaden, 2800, Danmark, European Union",
      "lat": "55.7861784",
      "type": "restaurant",
      "class": "amenity"
   },
   {
      "name": "Taverna Mythos",
      "place_id": "8180629",
      "lon": "12.5137502",
      "address": "Taverna Mythos, Egeg\u00e5rdsvej, Kongens Lyngby, Lyngby-Taarb\u00e6k Kommune, Region Hovedstaden, 2800, Danmark, European Union",
      "lat": "55.7975417",
      "type": "restaurant",
      "class": "amenity"
   },
   {
      "name": "Storkereden",
      "place_id": "72039349",
      "lon": "12.5341329858225",
      "address": "Storkereden, Helsing\u00f8rmotorvejen, Raadvad, Lyngby-Taarb\u00e6k Kommune, Region Hovedstaden, 2850, Danmark, European Union",
      "lat": "55.799968322883",
      "type": "restaurant",
      "class": "amenity"
   },
   {
      "name": "Ny Zi Yang",
      "place_id": "1408390",
      "lon": "12.5192702",
      "address": "Ny Zi Yang, Vangedevej, Vangede, J\u00e6gersborg, Gentofte Kommune, Region Hovedstaden, 2820 Gentofte, Danmark, European Union",
      "lat": "55.7513143",
      "type": "restaurant",
      "class": "amenity"
   },
   {
      "name": "Charlottenlund Fort",
      "place_id": "17480502",
      "lon": "12.5877527",
      "address": "Charlottenlund Fort, Strandlund, SwimOuts Butik, Charlottenlund, Skovshoved, Gentofte Kommune, Region Hovedstaden, 2920, Danmark, European Union",
      "lat": "55.7453426",
      "type": "restaurant",
      "class": "amenity"
   },
   {
      "name": "Mash",
      "place_id": "4800266",
      "lon": "12.5866939",
      "address": "Mash, J\u00e6gersborg Alle, Ordrup, Skovshoved, Gentofte Kommune, Region Hovedstaden, 2920, Danmark, European Union",
      "lat": "55.7492517",
      "type": "restaurant",
      "class": "amenity"
   },
   {
      "name": "Baronens",
      "place_id": "957259",
      "lon": "12.5109731",
      "address": "Baronens, Frederikssundsvej, Utterslev, K\u00f8benhavn, K\u00f8benhavns Kommune, Region Hovedstaden, 2400, Danmark, European Union",
      "lat": "55.7058884",
      "type": "restaurant",
      "class": "amenity"
   },
   {
      "name": "Mosehuset",
      "place_id": "174706",
      "lon": "12.5047722",
      "address": "Mosehuset, Hareskovvej, Br\u00f8nsh\u00f8j, K\u00f8benhavn, K\u00f8benhavns Kommune, Region Hovedstaden, 2700, Danmark, European Union",
      "lat": "55.7128958",
      "type": "restaurant",
      "class": "amenity"
   },
   {
      "name": "Tribeca NV",
      "place_id": "1578226",
      "lon": "12.5343818",
      "address": "Tribeca NV, Bisiddervej, N\u00f8rrebro, Bispebjerg, K\u00f8benhavns Kommune, Region Hovedstaden, 2400, Danmark, European Union",
      "lat": "55.7061983",
      "type": "restaurant",
      "class": "amenity"
   },
   {
      "name": "He Cheng",
      "place_id": "1324671",
      "lon": "12.5247413",
      "address": "He Cheng, Gladsaxevej, S\u00f8borg, Gladsaxe, Gladsaxe Kommune, Region Hovedstaden, 2860, Danmark, European Union",
      "lat": "55.7273213",
      "type": "restaurant",
      "class": "amenity"
   },
   {
      "name": "Silom",
      "place_id": "9215771",
      "lon": "12.577104",
      "address": "Silom, \u00d8sterbrogade, \u00d8sterbro, K\u00f8benhavn, K\u00f8benhavns Kommune, Region Hovedstaden, 2100, Danmark, European Union",
      "lat": "55.707726",
      "type": "restaurant",
      "class": "amenity"
   },
   {
      "name": "Laundromat Cafe",
      "place_id": "12255860",
      "lon": "12.5807055",
      "address": "Laundromat Cafe, \u00c5rhusgade, \u00d8sterbro, K\u00f8benhavn, K\u00f8benhavns Kommune, Region Hovedstaden, 2100, Danmark, European Union",
      "lat": "55.7060754",
      "type": "restaurant",
      "class": "amenity"
   },
   {
      "name": "9-Ni Running Sushi",
      "place_id": "1411155",
      "lon": "12.5769558",
      "address": "9-Ni Running Sushi, Nordhavnsvej (under construction), \u00d8sterbro, K\u00f8benhavn, K\u00f8benhavns Kommune, Region Hovedstaden, 2300, Danmark, European Union",
      "lat": "55.7168418",
      "type": "restaurant",
      "class": "amenity"
   },
   {
      "name": "\u00c5rhusgade No. 1",
      "place_id": "1538593",
      "lon": "12.578218",
      "address": "\u00c5rhusgade No. 1, \u00c5rhusgade, \u00d8sterbro, K\u00f8benhavn, K\u00f8benhavns Kommune, Region Hovedstaden, 2100, Danmark, European Union",
      "lat": "55.7060187",
      "type": "restaurant",
      "class": "amenity"
   },
   {
      "name": "Yuan Hong",
      "place_id": "15934804",
      "lon": "12.5738867",
      "address": "Yuan Hong, 23, Landskronagade, \u00d8sterbro, K\u00f8benhavn, K\u00f8benhavns Kommune, Region Hovedstaden, 2100, Danmark, European Union",
      "lat": "55.7131392",
      "type": "restaurant",
      "class": "amenity"
   },
   {
      "name": "Hong Cheng",
      "place_id": "945435",
      "lon": "12.5748829",
      "address": "Hong Cheng, Jagtvej, \u00d8sterbro, K\u00f8benhavn, K\u00f8benhavns Kommune, Region Hovedstaden, 2100, Danmark, European Union",
      "lat": "55.7088207",
      "type": "restaurant",
      "class": "amenity"
   },
   {
      "name": "Davids Bistro",
      "place_id": "12554583",
      "lon": "12.5796152",
      "address": "Davids Bistro, \u00c5rhusgade, \u00d8sterbro, K\u00f8benhavn, K\u00f8benhavns Kommune, Region Hovedstaden, 2100, Danmark, European Union",
      "lat": "55.7059794",
      "type": "restaurant",
      "class": "amenity"
   },
   {
      "name": "Hong Fu",
      "place_id": "956653",
      "lon": "12.5776302",
      "address": "Hong Fu, \u00d8sterbrogade, \u00d8sterbro, K\u00f8benhavn, K\u00f8benhavns Kommune, Region Hovedstaden, 2100, Danmark, European Union",
      "lat": "55.7061548",
      "type": "restaurant",
      "class": "amenity"
   },
   {
      "name": "Thai Lanna",
      "place_id": "6245225",
      "lon": "12.5766183",
      "address": "Thai Lanna, Strandvejen, SwimOuts Butik, Charlottenlund, Hellerup, Gentofte Kommune, Region Hovedstaden, 2920, Danmark, European Union",
      "lat": "55.739086",
      "type": "restaurant",
      "class": "amenity"
   },
   {
      "name": "Bernhard",
      "place_id": "842666",
      "lon": "12.5751469",
      "address": "Bernhard, Lille Strandvej, Charlottenlund, Hellerup, Gentofte Kommune, Region Hovedstaden, 2900, Danmark, European Union",
      "lat": "55.7343301",
      "type": "restaurant",
      "class": "amenity"
   },
   {
      "name": "Sticks'n'Sushi",
      "place_id": "938706",
      "lon": "12.5748815",
      "address": "Sticks'n'Sushi, Strandvejen, SwimOuts Butik, Charlottenlund, Hellerup, Gentofte Kommune, Region Hovedstaden, 2920, Danmark, European Union",
      "lat": "55.7367003",
      "type": "restaurant",
      "class": "amenity"
   },
   {
      "name": "Altopalato",
      "place_id": "959736",
      "lon": "12.5738669",
      "address": "Altopalato, Duntzfelts Alle, Charlottenlund, Hellerup, Gentofte Kommune, Region Hovedstaden, 2900, Danmark, European Union",
      "lat": "55.7360678",
      "type": "restaurant",
      "class": "amenity"
   },
   {
      "name": "Sticks'n'Sushi",
      "place_id": "938696",
      "lon": "12.5746411",
      "address": "Sticks'n'Sushi, Duntzfelts Alle, Charlottenlund, Hellerup, Gentofte Kommune, Region Hovedstaden, 2900, Danmark, European Union",
      "lat": "55.7362606",
      "type": "restaurant",
      "class": "amenity"
   },
   {
      "name": "Saison",
      "place_id": "946821",
      "lon": "12.5752162",
      "address": "Saison, Strandvejen, SwimOuts Butik, Charlottenlund, Hellerup, Gentofte Kommune, Region Hovedstaden, 2920, Danmark, European Union",
      "lat": "55.7374976",
      "type": "restaurant",
      "class": "amenity"
   },
   {
      "name": "Lazio",
      "place_id": "1653427",
      "lon": "12.5138839",
      "address": "Lazio, A.F. Beyers Vej, Br\u00f8nsh\u00f8j, K\u00f8benhavn, K\u00f8benhavns Kommune, Region Hovedstaden, 2000, Danmark, European Union",
      "lat": "55.6919834",
      "type": "restaurant",
      "class": "amenity"
   },
   {
      "name": "La Buca",
      "place_id": "4957256",
      "lon": "12.511729",
      "address": "La Buca, Frederiksg\u00e5rds All\u00e9, Br\u00f8nsh\u00f8j, K\u00f8benhavn, K\u00f8benhavns Kommune, Region Hovedstaden, 2000, Danmark, European Union",
      "lat": "55.693295",
      "type": "restaurant",
      "class": "amenity"
   },
   {
      "name": "Mei Hua",
      "place_id": "909513",
      "lon": "12.5072296",
      "address": "Mei Hua, Sallingvej, Br\u00f8nsh\u00f8j, K\u00f8benhavn, K\u00f8benhavns Kommune, Region Hovedstaden, 2000, Danmark, European Union",
      "lat": "55.6931496",
      "type": "restaurant",
      "class": "amenity"
   },
   {
      "name": "Shofuku Sushi",
      "place_id": "4396776",
      "lon": "12.4952426",
      "address": "Shofuku Sushi, Valby Langgade, Vanl\u00f8se, K\u00f8benhavn, K\u00f8benhavns Kommune, Region Hovedstaden, 2500, Danmark, European Union",
      "lat": "55.6687026",
      "type": "restaurant",
      "class": "amenity"
   },
   {
      "name": "Mad Med Bid",
      "place_id": "1483987",
      "lon": "12.5096815",
      "address": "Mad Med Bid, Sallingvej, Br\u00f8nsh\u00f8j, K\u00f8benhavn, K\u00f8benhavns Kommune, Region Hovedstaden, 2000, Danmark, European Union",
      "lat": "55.6942764",
      "type": "restaurant",
      "class": "amenity"
   },
   {
      "name": "Restaurant Bellah\u00f8j",
      "place_id": "5285885",
      "lon": "12.510835",
      "address": "Restaurant Bellah\u00f8j, Bellah\u00f8jvej, Br\u00f8nsh\u00f8j, K\u00f8benhavn, K\u00f8benhavns Kommune, Region Hovedstaden, 2000, Danmark, European Union",
      "lat": "55.7020472",
      "type": "restaurant",
      "class": "amenity"
   },
   {
      "name": "Konnilds Cafe",
      "place_id": "15229572",
      "lon": "12.522256",
      "address": "Konnilds Cafe, Roskildevej, Frederiksberg, Frederiksberg Kommune, Region Hovedstaden, 1805, Danmark, European Union",
      "lat": "55.6719078",
      "type": "restaurant",
      "class": "amenity"
   },
   {
      "name": "M.G.Petersens Familiehave",
      "place_id": "19190425",
      "lon": "12.530748",
      "address": "M.G.Petersens Familiehave, Pile Alle, Frederiksberg, Frederiksberg Kommune, Region Hovedstaden, 1804, Danmark, European Union",
      "lat": "55.6714583",
      "type": "restaurant",
      "class": "amenity"
   },
   {
      "name": "Green Papaya",
      "place_id": "938190",
      "lon": "12.5301755",
      "address": "Green Papaya, Smallegade, Frederiksberg, Frederiksberg Kommune, Region Hovedstaden, 2000, Danmark, European Union",
      "lat": "55.678895",
      "type": "restaurant",
      "class": "amenity"
   },
   {
      "name": "Sanshin Sushi",
      "place_id": "943354",
      "lon": "12.5303517",
      "address": "Sanshin Sushi, Smallegade, Frederiksberg, Frederiksberg Kommune, Region Hovedstaden, 2000, Danmark, European Union",
      "lat": "55.6788821",
      "type": "restaurant",
      "class": "amenity"
   },
   {
      "name": "Saigon Quan",
      "place_id": "922468",
      "lon": "12.5313719",
      "address": "Saigon Quan, Godth\u00e5bsvej, Frederiksberg, Frederiksberg Kommune, Region Hovedstaden, 1951, Danmark, European Union",
      "lat": "55.6870844",
      "type": "restaurant",
      "class": "amenity"
   },
   {
      "name": "Viet Nam Nam",
      "place_id": "818522",
      "lon": "12.5376331",
      "address": "Viet Nam Nam, Godth\u00e5bsvej, Frederiksberg, Frederiksberg Kommune, Region Hovedstaden, 1951, Danmark, European Union",
      "lat": "55.6856053",
      "type": "restaurant",
      "class": "amenity"
   },
   {
      "name": "Green Kitchen",
      "place_id": "918899",
      "lon": "12.5343588",
      "address": "Green Kitchen, 29, Godth\u00e5bsvej, Frederiksberg, Frederiksberg Kommune, Region Hovedstaden, 1951, Danmark, European Union",
      "lat": "55.6862043",
      "type": "restaurant",
      "class": "amenity"
   },
   {
      "name": "Kr\u00f8gers Familiehave",
      "place_id": "19254117",
      "lon": "12.5306595",
      "address": "Kr\u00f8gers Familiehave, Roskildevej, Frederiksberg, Frederiksberg Kommune, Region Hovedstaden, 1805, Danmark, European Union",
      "lat": "55.6711876",
      "type": "restaurant",
      "class": "amenity"
   },
   {
      "name": "Hansens Gamle Familiehave",
      "place_id": "19464764",
      "lon": "12.5313911",
      "address": "Hansens Gamle Familiehave, Pile Alle, Frederiksberg, Frederiksberg Kommune, Region Hovedstaden, 1806, Danmark, European Union",
      "lat": "55.6726005",
      "type": "restaurant",
      "class": "amenity"
   },
   {
      "name": "San Marco",
      "place_id": "978790",
      "lon": "12.5336349",
      "address": "San Marco, Falkoner Alle, Frederiksberg, Frederiksberg Kommune, Region Hovedstaden, 1861, Danmark, European Union",
      "lat": "55.6792426",
      "type": "restaurant",
      "class": "amenity"
   },
   {
      "name": "Hotel & Rstaurant Justy",
      "place_id": "17752269",
      "lon": "12.5298571",
      "address": "Hotel & Rstaurant Justy, Pile Alle, Frederiksberg, Frederiksberg Kommune, Region Hovedstaden, 1806, Danmark, European Union",
      "lat": "55.6737661",
      "type": "restaurant",
      "class": "amenity"
   },
   {
      "name": "Kartellet",
      "place_id": "951870",
      "lon": "12.532879",
      "address": "Kartellet, Allegade, Frederiksberg, Frederiksberg Kommune, Region Hovedstaden, 1854, Danmark, European Union",
      "lat": "55.6757539",
      "type": "restaurant",
      "class": "amenity"
   },
   {
      "name": "Halifax",
      "place_id": "17801724",
      "lon": "12.5306142",
      "address": "Halifax, Falkoner Plads, Frederiksberg, Frederiksberg Kommune, Region Hovedstaden, 1861, Danmark, European Union",
      "lat": "55.6803666",
      "type": "restaurant",
      "class": "amenity"
   },
   {
      "name": "Grock",
      "place_id": "961852",
      "lon": "12.5318436",
      "address": "Grock, Allegade, Frederiksberg, Frederiksberg Kommune, Region Hovedstaden, 1854, Danmark, European Union",
      "lat": "55.6760729",
      "type": "restaurant",
      "class": "amenity"
   },
   {
      "name": "Cafe Lindevang",
      "place_id": "14242199",
      "lon": "12.512669",
      "address": "Cafe Lindevang, Sl\u00f8jfen, Frederiksberg, Frederiksberg Kommune, Region Hovedstaden, 2000, Danmark, European Union",
      "lat": "55.6792193",
      "type": "restaurant",
      "class": "amenity"
   },
   {
      "name": "Da Claudio",
      "place_id": "959456",
      "lon": "12.532005",
      "address": "Da Claudio, Godth\u00e5bsvej, Frederiksberg, Frederiksberg Kommune, Region Hovedstaden, 1951, Danmark, European Union",
      "lat": "55.6869621",
      "type": "restaurant",
      "class": "amenity"
   },
   {
      "name": "Klai",
      "place_id": "939636",
      "lon": "12.5251682",
      "address": "Klai, Nyelandsvej, Frederiksberg, Frederiksberg Kommune, Region Hovedstaden, 1861, Danmark, European Union",
      "lat": "55.6842497",
      "type": "restaurant",
      "class": "amenity"
   },
   {
      "name": "Kai's",
      "place_id": "930921",
      "lon": "12.5375715",
      "address": "Kai's, Falkoner Alle, Frederiksberg, Frederiksberg Kommune, Region Hovedstaden, 1954, Danmark, European Union",
      "lat": "55.6845916",
      "type": "restaurant",
      "class": "amenity"
   },
   {
      "name": "Fuji Sushi",
      "place_id": "18752885",
      "lon": "12.5314567",
      "address": "Fuji Sushi, Vesterbrogade, Frederiksberg, Frederiksberg Kommune, Region Hovedstaden, 1804, Danmark, European Union",
      "lat": "55.6709733",
      "type": "restaurant",
      "class": "amenity"
   },
   {
      "name": "Cafe Brasil",
      "place_id": "14586905",
      "lon": "12.5147802",
      "address": "Cafe Brasil, Peter Bangs Vej, Frederiksberg, Frederiksberg Kommune, Region Hovedstaden, 2000, Danmark, European Union",
      "lat": "55.6788726",
      "type": "restaurant",
      "class": "amenity"
   },
   {
      "name": "Allegade 10",
      "place_id": "1030150",
      "lon": "12.5329286",
      "address": "Allegade 10, Allegade, Frederiksberg, Frederiksberg Kommune, Region Hovedstaden, 1854, Danmark, European Union",
      "lat": "55.6759943",
      "type": "restaurant",
      "class": "amenity"
   },
   {
      "name": "Bangkok",
      "place_id": "966935",
      "lon": "12.5277455",
      "address": "Bangkok, Sprog\u00f8vej, Frederiksberg, Frederiksberg Kommune, Region Hovedstaden, 1861, Danmark, European Union",
      "lat": "55.6832987",
      "type": "restaurant",
      "class": "amenity"
   },
   {
      "name": "La Vecchia",
      "place_id": "968888",
      "lon": "12.5337021",
      "address": "La Vecchia, Falkoner Alle, Frederiksberg, Frederiksberg Kommune, Region Hovedstaden, 1861, Danmark, European Union",
      "lat": "55.680705",
      "type": "restaurant",
      "class": "amenity"
   },
   {
      "name": "Restaurant Justy -Outdoor",
      "place_id": "17665426",
      "lon": "12.5293274",
      "address": "Restaurant Justy -Outdoor, Pile Alle, Frederiksberg, Frederiksberg Kommune, Region Hovedstaden, 1806, Danmark, European Union",
      "lat": "55.6738448",
      "type": "restaurant",
      "class": "amenity"
   },
   {
      "name": "Dragon City",
      "place_id": "12648372",
      "lon": "12.5372826",
      "address": "Dragon City, Hiller\u00f8dgade, Frederiksberg Kommune, Region Hovedstaden, 1959, Danmark, European Union",
      "lat": "55.6966847",
      "type": "restaurant",
      "class": "amenity"
   },
   {
      "name": "Kaleidoskop",
      "place_id": "20208607",
      "lon": "12.5019986",
      "address": "Kaleidoskop, Peter Bangs Vej, Frederiksberg Kommune, Region Hovedstaden, 2500, Danmark, European Union",
      "lat": "55.6787358",
      "type": "restaurant",
      "class": "amenity"
   },
   {
      "name": "Bellano",
      "place_id": "20007265",
      "lon": "12.5024465",
      "address": "Bellano, Peter Bangs Vej, Frederiksberg Kommune, Region Hovedstaden, 2500, Danmark, European Union",
      "lat": "55.678751",
      "type": "restaurant",
      "class": "amenity"
   },
   {
      "name": "Spicy Corner",
      "place_id": "12837145",
      "lon": "12.5375843",
      "address": "Spicy Corner, Hiller\u00f8dgade, Frederiksberg Kommune, Region Hovedstaden, 1959, Danmark, European Union",
      "lat": "55.6969837",
      "type": "restaurant",
      "class": "amenity"
   },
   {
      "name": "Mae Pen",
      "place_id": "7009092",
      "lon": "12.5458449",
      "address": "Mae Pen, 2 B, Gormsgade, N\u00f8rrebro, K\u00f8benhavn, K\u00f8benhavns Kommune, Region Hovedstaden, 2200, Danmark, European Union",
      "lat": "55.6969787",
      "type": "restaurant",
      "class": "amenity"
   },
   {
      "name": "Kashmir",
      "place_id": "13061090",
      "lon": "12.5565143",
      "address": "Kashmir, N\u00f8rrebrogade, N\u00f8rrebro, K\u00f8benhavn, K\u00f8benhavns Kommune, Region Hovedstaden, 1973, Danmark, European Union",
      "lat": "55.6893127",
      "type": "restaurant",
      "class": "amenity"
   },
   {
      "name": "Safir Kebab",
      "place_id": "954187",
      "lon": "12.5441844",
      "address": "Safir Kebab, 23, Jagtvej, Sorte Hest, N\u00f8rrebro, K\u00f8benhavn, K\u00f8benhavns Kommune, Region Hovedstaden, 2200, Danmark, European Union",
      "lat": "55.690498",
      "type": "restaurant",
      "class": "amenity"
   },
   {
      "name": "POP- et Spiseri",
      "place_id": "15219665",
      "lon": "12.554007",
      "address": "POP- et Spiseri, 28, Griffenfeldsgade, N\u00f8rrebro, K\u00f8benhavn, K\u00f8benhavns Kommune, Region Hovedstaden, 2200, Danmark, European Union",
      "lat": "55.6878461",
      "type": "restaurant",
      "class": "amenity"
   },
   {
      "name": "Nha Trang",
      "place_id": "19262184",
      "lon": "12.5467944",
      "address": "Nha Trang, Rantzausgade, Sorte Hest, N\u00f8rrebro, K\u00f8benhavn, K\u00f8benhavns Kommune, Region Hovedstaden, 1967, Danmark, European Union",
      "lat": "55.6874135",
      "type": "restaurant",
      "class": "amenity"
   },
   {
      "name": "rel\u00e6",
      "place_id": "11772026",
      "lon": "12.543259",
      "address": "rel\u00e6, 41, J\u00e6gersborggade, N\u00f8rrebro, K\u00f8benhavn, K\u00f8benhavns Kommune, Region Hovedstaden, 2200, Danmark, European Union",
      "lat": "55.693026",
      "type": "restaurant",
      "class": "amenity"
   },
   {
      "name": "Oysters&Grill",
      "place_id": "16651181",
      "lon": "12.5516196",
      "address": "Oysters&Grill, Sj\u00e6llandsgade, N\u00f8rrebro, K\u00f8benhavn, K\u00f8benhavns Kommune, Region Hovedstaden, 2200, Danmark, European Union",
      "lat": "55.6928836",
      "type": "restaurant",
      "class": "amenity"
   },
   {
      "name": "Kiin Kiin",
      "place_id": "6188542",
      "lon": "12.5573297",
      "address": "Kiin Kiin, 21, Guldbergsgade, N\u00f8rrebro, K\u00f8benhavn, K\u00f8benhavns Kommune, Region Hovedstaden, 2200, Danmark, European Union",
      "lat": "55.6918541",
      "type": "restaurant",
      "class": "amenity"
   },
   {
      "name": "Al Dente",
      "place_id": "957307",
      "lon": "12.5420214",
      "address": "Al Dente, Jagtvej, Sorte Hest, N\u00f8rrebro, K\u00f8benhavn, K\u00f8benhavns Kommune, Region Hovedstaden, 1959, Danmark, European Union",
      "lat": "55.6885193",
      "type": "restaurant",
      "class": "amenity"
   },
   {
      "name": "La Perla",
      "place_id": "9516002",
      "lon": "12.5428332",
      "address": "La Perla, Farumgade, N\u00f8rrebro, K\u00f8benhavn, K\u00f8benhavns Kommune, Region Hovedstaden, 2200, Danmark, European Union",
      "lat": "55.6981326",
      "type": "restaurant",
      "class": "amenity"
   },
   {
      "name": "Susu Sushi",
      "place_id": "11730211",
      "lon": "12.556225",
      "address": "Susu Sushi, 13, M\u00f8llegade, N\u00f8rrebro, K\u00f8benhavn, K\u00f8benhavns Kommune, Region Hovedstaden, 2200, Danmark, European Union",
      "lat": "55.6911222",
      "type": "restaurant",
      "class": "amenity"
   },
   {
      "name": "Ali Baba",
      "place_id": "1717988",
      "lon": "12.5544017",
      "address": "Ali Baba, Tj\u00f8rnegade, N\u00f8rrebro, K\u00f8benhavn, K\u00f8benhavns Kommune, Region Hovedstaden, 1973, Danmark",
      "lat": "55.6882439",
      "type": "restaurant",
      "class": "amenity"
   },
   {
      "name": "Kates Joint",
      "place_id": "15219539",
      "lon": "12.5587027",
      "address": "Kates Joint, 12, Bl\u00e5g\u00e5rdsgade, N\u00f8rrebro, K\u00f8benhavn, K\u00f8benhavns Kommune, Region Hovedstaden, 2200, Danmark, European Union",
      "lat": "55.687009",
      "type": "restaurant",
      "class": "amenity"
   },
   {
      "name": "Lotus House",
      "place_id": "1270289",
      "lon": "12.5621406",
      "address": "Lotus House, Peblinge Dossering, Vesterbro, K\u00f8benhavn, K\u00f8benhavns Kommune, Region Hovedstaden, 1370, Danmark, European Union",
      "lat": "55.687174",
      "type": "restaurant",
      "class": "amenity"
   },
   {
      "name": "Kung Fu II Izakaya Bar",
      "place_id": "18668137",
      "lon": "12.562565",
      "address": "Kung Fu II Izakaya Bar, 16B, Ravnsborggade, N\u00f8rrebro, K\u00f8benhavn, K\u00f8benhavns Kommune, Region Hovedstaden, 2200, Danmark, European Union",
      "lat": "55.6889266",
      "type": "restaurant",
      "class": "amenity"
   },
   {
      "name": "Persian Garden",
      "place_id": "1738795",
      "lon": "12.5587405",
      "address": "Persian Garden, 32, N\u00f8rrebrogade, N\u00f8rrebro, K\u00f8benhavn, K\u00f8benhavns Kommune, Region Hovedstaden, 2200, Danmark, European Union",
      "lat": "55.6887635",
      "type": "restaurant",
      "class": "amenity"
   },
   {
      "name": "Cafe N",
      "place_id": "14866357",
      "lon": "12.5586625",
      "address": "Cafe N, 17, Bl\u00e5g\u00e5rdsgade, N\u00f8rrebro, K\u00f8benhavn, K\u00f8benhavns Kommune, Region Hovedstaden, 2200, Danmark, European Union",
      "lat": "55.6867187",
      "type": "restaurant",
      "class": "amenity"
   },
   {
      "name": "Zafran",
      "place_id": "983629",
      "lon": "12.55991",
      "address": "Zafran, Bl\u00e5g\u00e5rdsgade, N\u00f8rrebro, K\u00f8benhavn, K\u00f8benhavns Kommune, Region Hovedstaden, 1370, Danmark, European Union",
      "lat": "55.6876811",
      "type": "restaurant",
      "class": "amenity"
   },
   {
      "name": "Express Pizza",
      "place_id": "17900577",
      "lon": "12.5416192",
      "address": "Express Pizza, 102, Mimersgade, N\u00f8rrebro, K\u00f8benhavn, K\u00f8benhavns Kommune, Region Hovedstaden, 2200, Danmark, European Union",
      "lat": "55.7009639",
      "type": "restaurant",
      "class": "amenity"
   },
   {
      "name": "Kreta",
      "place_id": "1721151",
      "lon": "12.5476527",
      "address": "Kreta, Jagtvej, N\u00f8rrebro, K\u00f8benhavn, K\u00f8benhavns Kommune, Region Hovedstaden, 2200, Danmark, European Union",
      "lat": "55.6934611",
      "type": "restaurant",
      "class": "amenity"
   },
   {
      "name": "Gr\u00f8d",
      "place_id": "19907462",
      "lon": "12.5428696",
      "address": "Gr\u00f8d, 50, J\u00e6gersborggade, N\u00f8rrebro, K\u00f8benhavn, K\u00f8benhavns Kommune, Region Hovedstaden, 2200, Danmark, European Union",
      "lat": "55.6935925",
      "type": "restaurant",
      "class": "amenity"
   },
   {
      "name": "Tranquebar",
      "place_id": "17307369",
      "lon": "12.5475449",
      "address": "Tranquebar, Nannasgade, N\u00f8rrebro, K\u00f8benhavn, K\u00f8benhavns Kommune, Region Hovedstaden, 2200, Danmark, European Union",
      "lat": "55.7003721",
      "type": "restaurant",
      "class": "amenity"
   },
   {
      "name": "Manfreds & vin",
      "place_id": "7349208",
      "lon": "12.5433505",
      "address": "Manfreds & vin, 40, J\u00e6gersborggade, N\u00f8rrebro, K\u00f8benhavn, K\u00f8benhavns Kommune, Region Hovedstaden, 2200, Danmark, European Union",
      "lat": "55.6932312",
      "type": "restaurant",
      "class": "amenity"
   },
   {
      "name": "Picnic",
      "place_id": "19339094",
      "lon": "12.5608641",
      "address": "Picnic, 22B, F\u00e6lledvej, N\u00f8rrebro, K\u00f8benhavn, K\u00f8benhavns Kommune, Region Hovedstaden, 2200, Danmark, European Union",
      "lat": "55.6902143",
      "type": "restaurant",
      "class": "amenity"
   },
   {
      "name": "Butter Tikka",
      "place_id": "20063254",
      "lon": "12.5480682",
      "address": "Butter Tikka, Tagensvej, N\u00f8rrebro, K\u00f8benhavn, K\u00f8benhavns Kommune, Region Hovedstaden, 2200, Danmark, European Union",
      "lat": "55.7032911",
      "type": "restaurant",
      "class": "amenity"
   },
   {
      "name": "N\u00f8rrebro Bryghus",
      "place_id": "120216",
      "lon": "12.5636223",
      "address": "N\u00f8rrebro Bryghus, Sankt Hans Gade, Slotsholmen, K\u00f8benhavn, K\u00f8benhavns Kommune, Region Hovedstaden, 1371, Danmark, European Union",
      "lat": "55.6900135",
      "type": "restaurant",
      "class": "amenity"
   },
   {
      "name": "Auberge",
      "place_id": "7388505",
      "lon": "12.5789319",
      "address": "Auberge, \u00d8sterbrogade, \u00d8sterbro, K\u00f8benhavn, K\u00f8benhavns Kommune, Region Hovedstaden, 1350, Danmark, European Union",
      "lat": "55.6979195",
      "type": "restaurant",
      "class": "amenity"
   },
   {
      "name": "Le Saint Jaques",
      "place_id": "994931",
      "lon": "12.5779306",
      "address": "Le Saint Jaques, Sankt Jakobs Plads, \u00d8sterbro, K\u00f8benhavn, K\u00f8benhavns Kommune, Region Hovedstaden, 2100, Danmark",
      "lat": "55.7034223",
      "type": "restaurant",
      "class": "amenity"
   },
   {
      "name": "McDonalds",
      "place_id": "17590264",
      "lon": "12.5777389",
      "address": "McDonalds, N\u00f8jsomhedsvej, \u00d8sterbro, K\u00f8benhavn, K\u00f8benhavns Kommune, Region Hovedstaden, 2100, Danmark, European Union",
      "lat": "55.704634",
      "type": "restaurant",
      "class": "amenity"
   },
   {
      "name": "Cofoco Le Marche",
      "place_id": "16864841",
      "lon": "12.578701",
      "address": "Cofoco Le Marche, \u00d8sterbrogade, \u00d8sterbro, K\u00f8benhavn, K\u00f8benhavns Kommune, Region Hovedstaden, 2100, Danmark, European Union",
      "lat": "55.698384",
      "type": "restaurant",
      "class": "amenity"
   },
   {
      "name": "S\u00f8promenaden",
      "place_id": "16786942",
      "lon": "12.578279",
      "address": "S\u00f8promenaden, Sortedam Dossering, \u00d8sterbro, K\u00f8benhavn, K\u00f8benhavns Kommune, Region Hovedstaden, 1352, Danmark, European Union",
      "lat": "55.697735",
      "type": "restaurant",
      "class": "amenity"
   },
   {
      "name": "Kokkeriet",
      "place_id": "8759263",
      "lon": "12.5850836",
      "address": "Kokkeriet, 64, Kronprinsessegade, Frederiksstaden, K\u00f8benhavn, K\u00f8benhavns Kommune, Region Hovedstaden, 1306, Danmark, European Union",
      "lat": "55.6875403",
      "type": "restaurant",
      "class": "amenity"
   },
   {
      "name": "Namaste Nepal Restaurant",
      "place_id": "7372198",
      "lon": "12.5676379",
      "address": "Namaste Nepal Restaurant, 11A, Fredensgade, \u00d8sterbro, K\u00f8benhavn, K\u00f8benhavns Kommune, Region Hovedstaden, 2200, Danmark, European Union",
      "lat": "55.692673",
      "type": "restaurant",
      "class": "amenity"
   },
   {
      "name": "Jean Claude",
      "place_id": "18723302",
      "lon": "12.5810456",
      "address": "Jean Claude, 6, Victor Borges Plads, \u00d8sterbro, K\u00f8benhavn, K\u00f8benhavns Kommune, Region Hovedstaden, 2100, Danmark",
      "lat": "55.7017198",
      "type": "restaurant",
      "class": "amenity"
   },
   {
      "name": "Ristorante Don Erasmo",
      "place_id": "17202426",
      "lon": "12.575714",
      "address": "Ristorante Don Erasmo, 18, \u00d8ster Farimagsgade, Slotsholmen, K\u00f8benhavn, K\u00f8benhavns Kommune, Region Hovedstaden, 2100, Danmark, European Union",
      "lat": "55.6906661",
      "type": "restaurant",
      "class": "amenity"
   },
   {
      "name": "Fru Heiberg",
      "place_id": "1647081",
      "lon": "12.5789449",
      "address": "Fru Heiberg, 3, Rosenv\u00e6ngets All\u00e9, \u00d8sterbro, K\u00f8benhavn, K\u00f8benhavns Kommune, Region Hovedstaden, 2100, Danmark",
      "lat": "55.6988053",
      "type": "restaurant",
      "class": "amenity"
   },
   {
      "name": "Pulcinella",
      "place_id": "16105596",
      "lon": "12.5761617",
      "address": "Pulcinella, \u00d8ster Farimagsgade, \u00d8sterbro, K\u00f8benhavn, K\u00f8benhavns Kommune, Region Hovedstaden, 1307, Danmark, European Union",
      "lat": "55.6911568",
      "type": "restaurant",
      "class": "amenity"
   },
   {
      "name": "Theodor's",
      "place_id": "984370",
      "lon": "12.5776559",
      "address": "Theodor's, Sankt Jakobs Plads, \u00d8sterbro, K\u00f8benhavn, K\u00f8benhavns Kommune, Region Hovedstaden, 2100, Danmark",
      "lat": "55.7030354",
      "type": "restaurant",
      "class": "amenity"
   },
   {
      "name": "Running Sushi",
      "place_id": "16609772",
      "lon": "12.5741456",
      "address": "Running Sushi, S\u00f8lvgade, Slotsholmen, K\u00f8benhavn, K\u00f8benhavns Kommune, Region Hovedstaden, 1354, Danmark, European Union",
      "lat": "55.6897217",
      "type": "restaurant",
      "class": "amenity"
   },
   {
      "name": "O's",
      "place_id": "16269934",
      "lon": "12.574713",
      "address": "O's, \u00d8ster Farimagsgade, Slotsholmen, K\u00f8benhavn, K\u00f8benhavns Kommune, Region Hovedstaden, 1352, Danmark, European Union",
      "lat": "55.6901117",
      "type": "restaurant",
      "class": "amenity"
   },
   {
      "name": "Famo Metro",
      "place_id": "1757696",
      "lon": "12.5794829",
      "address": "Famo Metro, 114, \u00d8ster S\u00f8gade, \u00d8sterbro, K\u00f8benhavn, K\u00f8benhavns Kommune, Region Hovedstaden, 2100, Danmark, European Union",
      "lat": "55.6957123",
      "type": "restaurant",
      "class": "amenity"
   },
   {
      "name": "Romarin",
      "place_id": "5075893",
      "lon": "12.5735838",
      "address": "Romarin, 90, Ryesgade, \u00d8sterbro, K\u00f8benhavn, K\u00f8benhavns Kommune, Region Hovedstaden, 2100, Danmark",
      "lat": "55.6962047",
      "type": "restaurant",
      "class": "amenity"
   },
   {
      "name": "Hanoi",
      "place_id": "1012349",
      "lon": "12.5806514",
      "address": "Hanoi, Classensgade, \u00d8sterbro, K\u00f8benhavn, K\u00f8benhavns Kommune, Region Hovedstaden, 1327, Danmark, European Union",
      "lat": "55.6965735",
      "type": "restaurant",
      "class": "amenity"
   },
   {
      "name": "Gourmandiet by Night",
      "place_id": "6200181",
      "lon": "12.579424",
      "address": "Gourmandiet by Night, 7A, Rosenv\u00e6ngets All\u00e9, \u00d8sterbro, K\u00f8benhavn, K\u00f8benhavns Kommune, Region Hovedstaden, 2100, Danmark",
      "lat": "55.698971",
      "type": "restaurant",
      "class": "amenity"
   },
   {
      "name": "Taormina",
      "place_id": "7017611",
      "lon": "12.5810392",
      "address": "Taormina, Slagelsegade, \u00d8sterbro, K\u00f8benhavn, K\u00f8benhavns Kommune, Region Hovedstaden, 1317, Danmark",
      "lat": "55.6985313",
      "type": "restaurant",
      "class": "amenity"
   },
   {
      "name": "Lele",
      "place_id": "16483728",
      "lon": "12.579041",
      "address": "Lele, \u00d8sterbrogade, \u00d8sterbro, K\u00f8benhavn, K\u00f8benhavns Kommune, Region Hovedstaden, 1350, Danmark, European Union",
      "lat": "55.697731",
      "type": "restaurant",
      "class": "amenity"
   },
   {
      "name": "Rex Republic",
      "place_id": "4795114",
      "lon": "12.5738036",
      "address": "Rex Republic, 106, Blegdamsvej, \u00d8sterbro, K\u00f8benhavn, K\u00f8benhavns Kommune, Region Hovedstaden, 2100, Danmark, European Union",
      "lat": "55.69733",
      "type": "restaurant",
      "class": "amenity"
   },
   {
      "name": "B'India",
      "place_id": "1315390",
      "lon": "12.5761653",
      "address": "B'India, Blegdamsvej, \u00d8sterbro, K\u00f8benhavn, K\u00f8benhavns Kommune, Region Hovedstaden, 1352, Danmark, European Union",
      "lat": "55.698597",
      "type": "restaurant",
      "class": "amenity"
   },
   {
      "name": "Stue 11",
      "place_id": "16609873",
      "lon": "12.5730861",
      "address": "Stue 11, Ole Suhrs Gade, Slotsholmen, K\u00f8benhavn, K\u00f8benhavns Kommune, Region Hovedstaden, 1352, Danmark, European Union",
      "lat": "55.6886663",
      "type": "restaurant",
      "class": "amenity"
   },
   {
      "name": "New Garden",
      "place_id": "1291432",
      "lon": "12.5780176",
      "address": "New Garden, Odensegade, \u00d8sterbro, K\u00f8benhavn, K\u00f8benhavns Kommune, Region Hovedstaden, 2100, Danmark",
      "lat": "55.6995126",
      "type": "restaurant",
      "class": "amenity"
   },
   {
      "name": "EC2GO Eastern Corner",
      "place_id": "16445911",
      "lon": "12.5739089",
      "address": "EC2GO Eastern Corner, \u00d8ster Farimagsgade, Slotsholmen, K\u00f8benhavn, K\u00f8benhavns Kommune, Region Hovedstaden, 1352, Danmark, European Union",
      "lat": "55.6892416",
      "type": "restaurant",
      "class": "amenity"
   },
   {
      "name": "Geranium",
      "place_id": "18211589",
      "lon": "12.5720401",
      "address": "Geranium, 4, Per Henrik Lings All\u00e9, \u00d8sterbro, K\u00f8benhavn, K\u00f8benhavns Kommune, Region Hovedstaden, 2100, Danmark",
      "lat": "55.7037103",
      "type": "restaurant",
      "class": "amenity"
   },
   {
      "name": "Sticksnsushi",
      "place_id": "8172705",
      "lon": "12.5755799",
      "address": "Sticksnsushi, 16, \u00d8ster Farimagsgade, Slotsholmen, K\u00f8benhavn, K\u00f8benhavns Kommune, Region Hovedstaden, 2100, Danmark, European Union",
      "lat": "55.6905436",
      "type": "restaurant",
      "class": "amenity"
   },
   {
      "name": "Sapor",
      "place_id": "918889",
      "lon": "12.5483492",
      "address": "Sapor, Thorvaldsensvej, Frederiksberg, Frederiksberg Kommune, Region Hovedstaden, 1871, Danmark, European Union",
      "lat": "55.6802913",
      "type": "restaurant",
      "class": "amenity"
   },
   {
      "name": "Nyu Sakura",
      "place_id": "951947",
      "lon": "12.5513918",
      "address": "Nyu Sakura, Adolph Steens Alle, Frederiksberg, Frederiksberg Kommune, Region Hovedstaden, 1971, Danmark, European Union",
      "lat": "55.6841116",
      "type": "restaurant",
      "class": "amenity"
   },
   {
      "name": "La Lanterna",
      "place_id": "1047262",
      "lon": "12.5477874",
      "address": "La Lanterna, Niels Ebbesens Vej, Frederiksberg, Frederiksberg Kommune, Region Hovedstaden, 1911, Danmark, European Union",
      "lat": "55.6788783",
      "type": "restaurant",
      "class": "amenity"
   },
   {
      "name": "Sirivan",
      "place_id": "961956",
      "lon": "12.5493748",
      "address": "Sirivan, \u00c5boulevard, Frederiksberg Kommune, Region Hovedstaden, 1964, Danmark, European Union",
      "lat": "55.6849826",
      "type": "restaurant",
      "class": "amenity"
   },
   {
      "name": "Kim",
      "place_id": "1082153",
      "lon": "12.5561227",
      "address": "Kim, \u00c5boulevard, Vesterbro, K\u00f8benhavn, K\u00f8benhavns Kommune, Region Hovedstaden, 1635, Danmark, European Union",
      "lat": "55.6834797",
      "type": "restaurant",
      "class": "amenity"
   },
   {
      "name": "Floras Kaffebar",
      "place_id": "1556494",
      "lon": "12.557971",
      "address": "Floras Kaffebar, Bl\u00e5g\u00e5rds Plads, N\u00f8rrebro, K\u00f8benhavn, K\u00f8benhavns Kommune, Region Hovedstaden, 1635, Danmark, European Union",
      "lat": "55.6861332",
      "type": "restaurant",
      "class": "amenity"
   },
   {
      "name": "Temporada Tapasbodega",
      "place_id": "1416101",
      "lon": "12.5541773",
      "address": "Temporada Tapasbodega, 23, \u00c5boulevard, Sorte Hest, N\u00f8rrebro, K\u00f8benhavn, K\u00f8benhavns Kommune, Region Hovedstaden, 1960, Danmark, European Union",
      "lat": "55.6844488",
      "type": "restaurant",
      "class": "amenity"
   },
   {
      "name": "Tapasfabrikken",
      "place_id": "935987",
      "lon": "12.5577986",
      "address": "Tapasfabrikken, Bl\u00e5g\u00e5rds Plads, N\u00f8rrebro, K\u00f8benhavn, K\u00f8benhavns Kommune, Region Hovedstaden, 1635, Danmark, European Union",
      "lat": "55.6859392",
      "type": "restaurant",
      "class": "amenity"
   },
   {
      "name": "Scarpetta",
      "place_id": "7295666",
      "lon": "12.5522738",
      "address": "Scarpetta, Rantzausgade, Sorte Hest, N\u00f8rrebro, K\u00f8benhavn, K\u00f8benhavns Kommune, Region Hovedstaden, 1960, Danmark, European Union",
      "lat": "55.6854535",
      "type": "restaurant",
      "class": "amenity"
   },
   {
      "name": "Thai Pan",
      "place_id": "347008",
      "lon": "12.5594625",
      "address": "Thai Pan, Peblinge Dossering, Vesterbro, K\u00f8benhavn, K\u00f8benhavns Kommune, Region Hovedstaden, 1633, Danmark, European Union",
      "lat": "55.6844669",
      "type": "restaurant",
      "class": "amenity"
   },
   {
      "name": "La Sosta",
      "place_id": "981410",
      "lon": "12.5543323",
      "address": "La Sosta, Julius Thomsens Gade, Frederiksberg, Frederiksberg Kommune, Region Hovedstaden, 1632, Danmark, European Union",
      "lat": "55.6819882",
      "type": "restaurant",
      "class": "amenity"
   },
   {
      "name": "Akropolis",
      "place_id": "924444",
      "lon": "12.5515978",
      "address": "Akropolis, Adolph Steens Alle, Frederiksberg, Frederiksberg Kommune, Region Hovedstaden, 1971, Danmark, European Union",
      "lat": "55.6843632",
      "type": "restaurant",
      "class": "amenity"
   },
   {
      "name": "L'Olivier",
      "place_id": "965476",
      "lon": "12.5546743",
      "address": "L'Olivier, Forchhammersvej, Frederiksberg Kommune, Region Hovedstaden, 1921, Danmark, European Union",
      "lat": "55.6793681",
      "type": "restaurant",
      "class": "amenity"
   },
   {
      "name": "Chun Bo",
      "place_id": "964100",
      "lon": "12.5532045",
      "address": "Chun Bo, \u00c5boulevard, Frederiksberg Kommune, Region Hovedstaden, 1971, Danmark, European Union",
      "lat": "55.6846845",
      "type": "restaurant",
      "class": "amenity"
   },
   {
      "name": "Al Diwan",
      "place_id": "7371266",
      "lon": "12.5480443",
      "address": "Al Diwan, 94, Vesterbrogade, Sorte Hest, Vesterbro, K\u00f8benhavn, K\u00f8benhavns Kommune, Region Hovedstaden, 1621, Danmark, European Union",
      "lat": "55.6722696",
      "type": "restaurant",
      "class": "amenity"
   },
   {
      "name": "Von Fressen",
      "place_id": "7409518",
      "lon": "12.5433344",
      "address": "Von Fressen, 124, Vesterbrogade, Sorte Hest, Frederiksberg, K\u00f8benhavn, Region Hovedstaden, 1810, Danmark, European Union",
      "lat": "55.6710868",
      "type": "restaurant",
      "class": "amenity"
   },
   {
      "name": "Restaurant Klubben",
      "place_id": "1668371",
      "lon": "12.5457687",
      "address": "Restaurant Klubben, Enghavevej, Sorte Hest, Vesterbro, K\u00f8benhavn, K\u00f8benhavns Kommune, Region Hovedstaden, 1624, Danmark, European Union",
      "lat": "55.6711195",
      "type": "restaurant",
      "class": "amenity"
   },
   {
      "name": "Ngoc Linh",
      "place_id": "7013963",
      "lon": "12.5475347",
      "address": "Ngoc Linh, 89, Vesterbrogade, Sorte Hest, Vesterbro, K\u00f8benhavn, K\u00f8benhavns Kommune, Region Hovedstaden, 1621, Danmark, European Union",
      "lat": "55.6719096",
      "type": "restaurant",
      "class": "amenity"
   },
   {
      "name": "Kung Fu Izakaya Bar",
      "place_id": "7493174",
      "lon": "12.5443268",
      "address": "Kung Fu Izakaya Bar, 5, Sundevedsgade, Sorte Hest, Vesterbro, K\u00f8benhavn, K\u00f8benhavns Kommune, Region Hovedstaden, 1751, Danmark, European Union",
      "lat": "55.6707237",
      "type": "restaurant",
      "class": "amenity"
   },
   {
      "name": "Tove Ditlevsens Mindehave",
      "place_id": "7174219",
      "lon": "12.5458181",
      "address": "Tove Ditlevsens Mindehave, Enghavevej, Sorte Hest, Vesterbro, K\u00f8benhavn, K\u00f8benhavns Kommune, Region Hovedstaden, 1624, Danmark, European Union",
      "lat": "55.6710293",
      "type": "restaurant",
      "class": "amenity"
   },
   {
      "name": "Deep",
      "place_id": "7468680",
      "lon": "12.547363",
      "address": "Deep, Vesterbrogade, Sorte Hest, Vesterbro, K\u00f8benhavn, K\u00f8benhavns Kommune, Region Hovedstaden, 1621, Danmark, European Union",
      "lat": "55.6719096",
      "type": "restaurant",
      "class": "amenity"
   },
   {
      "name": "Famo",
      "place_id": "5147991",
      "lon": "12.5506713",
      "address": "Famo, Saxogade, Sorte Hest, Vesterbro, K\u00f8benhavn, K\u00f8benhavns Kommune, Region Hovedstaden, 1620, Danmark, European Union",
      "lat": "55.6723741",
      "type": "restaurant",
      "class": "amenity"
   },
   {
      "name": "Ankara Restaurant",
      "place_id": "6547846",
      "lon": "12.5476408",
      "address": "Ankara Restaurant, Vesterbrogade, Sorte Hest, Vesterbro, K\u00f8benhavn, K\u00f8benhavns Kommune, Region Hovedstaden, 1621, Danmark, European Union",
      "lat": "55.6722224",
      "type": "restaurant",
      "class": "amenity"
   },
   {
      "name": "Hing's Cuisine",
      "place_id": "18335101",
      "lon": "12.5404334",
      "address": "Hing's Cuisine, 146, Vesterbrogade, Sorte Hest, Frederiksberg, K\u00f8benhavn, Region Hovedstaden, 1620, Danmark, European Union",
      "lat": "55.6703788",
      "type": "restaurant",
      "class": "amenity"
   },
   {
      "name": "Meyer's Deli",
      "place_id": "962220",
      "lon": "12.5458365",
      "address": "Meyer's Deli, Gammel Kongevej, Frederiksberg, Frederiksberg Kommune, Region Hovedstaden, 1824, Danmark, European Union",
      "lat": "55.6753288",
      "type": "restaurant",
      "class": "amenity"
   },
   {
      "name": "Famo 51",
      "place_id": "4810940",
      "lon": "12.5503465",
      "address": "Famo 51, Gammel Kongevej, Frederiksberg, Frederiksberg Kommune, Region Hovedstaden, 1824, Danmark, European Union",
      "lat": "55.6742769",
      "type": "restaurant",
      "class": "amenity"
   },
   {
      "name": "La Fiesta Mexicana",
      "place_id": "960680",
      "lon": "12.5452292",
      "address": "La Fiesta Mexicana, Frederiksberg Alle, Frederiksberg, Frederiksberg Kommune, Region Hovedstaden, 1823, Danmark, European Union",
      "lat": "55.6732568",
      "type": "restaurant",
      "class": "amenity"
   },
   {
      "name": "M\u00eal\u00e9e",
      "place_id": "17899343",
      "lon": "12.5426451",
      "address": "M\u00eal\u00e9e, Martensens Alle, Frederiksberg, Frederiksberg Kommune, Region Hovedstaden, 1850, Danmark, European Union",
      "lat": "55.6757981",
      "type": "restaurant",
      "class": "amenity"
   },
   {
      "name": "Les trois cochons",
      "place_id": "7327526",
      "lon": "12.5501145",
      "address": "Les trois cochons, V\u00e6rnedamsvej, Frederiksberg Kommune, Region Hovedstaden, 1619, Danmark, European Union",
      "lat": "55.6737536",
      "type": "restaurant",
      "class": "amenity"
   },
   {
      "name": "Mamma Ludbas",
      "place_id": "7507950",
      "lon": "12.5500882",
      "address": "Mamma Ludbas, 2, V\u00e6rnedamsvej, Frederiksberg Kommune, Region Hovedstaden, 1619, Danmark, European Union",
      "lat": "55.6729079",
      "type": "restaurant",
      "class": "amenity"
   },
   {
      "name": "Yan's Wok",
      "place_id": "14936272",
      "lon": "12.5544414",
      "address": "Yan's Wok, 9, Bagerstr\u00e6de, Sorte Hest, Vesterbro, K\u00f8benhavn, K\u00f8benhavns Kommune, Region Hovedstaden, 1617, Danmark, European Union",
      "lat": "55.6732497",
      "type": "restaurant",
      "class": "amenity"
   },
   {
      "name": "Vagabondo's",
      "place_id": "942427",
      "lon": "12.551669",
      "address": "Vagabondo's, 70, Vesterbrogade, Sorte Hest, Vesterbro, K\u00f8benhavn, K\u00f8benhavns Kommune, Region Hovedstaden, 1618, Danmark, European Union",
      "lat": "55.672769",
      "type": "restaurant",
      "class": "amenity"
   },
   {
      "name": "Golden Bamboo",
      "place_id": "8845395",
      "lon": "12.5568577",
      "address": "Golden Bamboo, Vesterbrogade, Sorte Hest, Vesterbro, K\u00f8benhavn, K\u00f8benhavns Kommune, Region Hovedstaden, 1616, Danmark, European Union",
      "lat": "55.6724088",
      "type": "restaurant",
      "class": "amenity"
   },
   {
      "name": "Klais",
      "place_id": "8840343",
      "lon": "12.5567499",
      "address": "Klais, Vesterbrogade, Sorte Hest, Vesterbro, K\u00f8benhavn, K\u00f8benhavns Kommune, Region Hovedstaden, 1616, Danmark, European Union",
      "lat": "55.6723885",
      "type": "restaurant",
      "class": "amenity"
   },
   {
      "name": "Madklubben Vesterbro",
      "place_id": "17653095",
      "lon": "12.5529335",
      "address": "Madklubben Vesterbro, 62, Vesterbrogade, Sorte Hest, Vesterbro, K\u00f8benhavn, K\u00f8benhavns Kommune, Region Hovedstaden, 1620, Danmark, European Union",
      "lat": "55.6727621",
      "type": "restaurant",
      "class": "amenity"
   },
   {
      "name": "Chez Bruno",
      "place_id": "963133",
      "lon": "12.5553705",
      "address": "Chez Bruno, Gammel Kongevej, Sorte Hest, Vesterbro, K\u00f8benhavn, K\u00f8benhavns Kommune, Region Hovedstaden, 1610, Danmark, European Union",
      "lat": "55.6734181",
      "type": "restaurant",
      "class": "amenity"
   },
   {
      "name": "Springgarden",
      "place_id": "975081",
      "lon": "12.5561717",
      "address": "Springgarden, Vesterbrogade, Sorte Hest, Vesterbro, K\u00f8benhavn, K\u00f8benhavns Kommune, Region Hovedstaden, 1616, Danmark, European Union",
      "lat": "55.6725366",
      "type": "restaurant",
      "class": "amenity"
   },
   {
      "name": "Le Basilic",
      "place_id": "948951",
      "lon": "12.5560485",
      "address": "Le Basilic, 5, Gasv\u00e6rksvej, Sorte Hest, Vesterbro, K\u00f8benhavn, K\u00f8benhavns Kommune, Region Hovedstaden, 1708, Danmark, European Union",
      "lat": "55.6720048",
      "type": "restaurant",
      "class": "amenity"
   },
   {
      "name": "Le Le Nha Hang",
      "place_id": "975800",
      "lon": "12.555688",
      "address": "Le Le Nha Hang, Vesterbrogade, Sorte Hest, Vesterbro, K\u00f8benhavn, K\u00f8benhavns Kommune, Region Hovedstaden, 1617, Danmark, European Union",
      "lat": "55.6724694",
      "type": "restaurant",
      "class": "amenity"
   },
   {
      "name": "Spuntino",
      "place_id": "16695972",
      "lon": "12.5521715",
      "address": "Spuntino, Vesterbrogade, Sorte Hest, Vesterbro, K\u00f8benhavn, K\u00f8benhavns Kommune, Region Hovedstaden, 1617, Danmark, European Union",
      "lat": "55.6727576",
      "type": "restaurant",
      "class": "amenity"
   },
   {
      "name": "Topkapi",
      "place_id": "927878",
      "lon": "12.552108",
      "address": "Topkapi, Gammel Kongevej, Frederiksberg, Frederiksberg Kommune, Region Hovedstaden, 1824, Danmark, European Union",
      "lat": "55.6738967",
      "type": "restaurant",
      "class": "amenity"
   },
   {
      "name": "Miga",
      "place_id": "932268",
      "lon": "12.5535757",
      "address": "Miga, Gammel Kongevej, Frederiksberg, Frederiksberg Kommune, Region Hovedstaden, 1824, Danmark, European Union",
      "lat": "55.6735531",
      "type": "restaurant",
      "class": "amenity"
   },
   {
      "name": "Restaurant Sultan",
      "place_id": "1068343",
      "lon": "12.5587525",
      "address": "Restaurant Sultan, 9, Gammel Kongevej, Sorte Hest, Vesterbro, K\u00f8benhavn, K\u00f8benhavns Kommune, Region Hovedstaden, 1610, Danmark, European Union",
      "lat": "55.6741591",
      "type": "restaurant",
      "class": "amenity"
   },
   {
      "name": "Flora's Steakhouse",
      "place_id": "957183",
      "lon": "12.5596734",
      "address": "Flora's Steakhouse, Vesterbrogade, Sorte Hest, Vesterbro, K\u00f8benhavn, K\u00f8benhavns Kommune, Region Hovedstaden, 1615, Danmark, European Union",
      "lat": "55.6733045",
      "type": "restaurant",
      "class": "amenity"
   },
   {
      "name": "Cube",
      "place_id": "8307215",
      "lon": "12.5612145",
      "address": "Cube, Vesterbrogade, Vesterbro, K\u00f8benhavn, K\u00f8benhavns Kommune, Region Hovedstaden, 1614, Danmark, European Union",
      "lat": "55.673194",
      "type": "restaurant",
      "class": "amenity"
   },
   {
      "name": "Koh-I-Noor",
      "place_id": "979076",
      "lon": "12.5580269",
      "address": "Koh-I-Noor, 33, Vesterbrogade, Sorte Hest, Vesterbro, K\u00f8benhavn, K\u00f8benhavns Kommune, Region Hovedstaden, 1615, Danmark, European Union",
      "lat": "55.6726556",
      "type": "restaurant",
      "class": "amenity"
   },
   {
      "name": "Saxo",
      "place_id": "15589384",
      "lon": "12.5623188",
      "address": "Saxo, 11, Colbj\u00f8rnsensgade, Vesterbro, K\u00f8benhavn, K\u00f8benhavns Kommune, Region Hovedstaden, 1652, Danmark, European Union",
      "lat": "55.6722107",
      "type": "restaurant",
      "class": "amenity"
   },
   {
      "name": "Cassiopeia",
      "place_id": "938298",
      "lon": "12.5577794",
      "address": "Cassiopeia, Gammel Kongevej, Sorte Hest, Vesterbro, K\u00f8benhavn, K\u00f8benhavns Kommune, Region Hovedstaden, 1616, Danmark, European Union",
      "lat": "55.6743669",
      "type": "restaurant",
      "class": "amenity"
   },
   {
      "name": "Canton",
      "place_id": "841350",
      "lon": "12.5586584",
      "address": "Canton, Vesterbrogade, Sorte Hest, Vesterbro, K\u00f8benhavn, K\u00f8benhavns Kommune, Region Hovedstaden, 1615, Danmark, European Union",
      "lat": "55.6730606",
      "type": "restaurant",
      "class": "amenity"
   },
   {
      "name": "Restaurant Ankara",
      "place_id": "960665",
      "lon": "12.5577322",
      "address": "Restaurant Ankara, 35, Vesterbrogade, Sorte Hest, Vesterbro, K\u00f8benhavn, K\u00f8benhavns Kommune, Region Hovedstaden, 1616, Danmark, European Union",
      "lat": "55.6725958",
      "type": "restaurant",
      "class": "amenity"
   },
   {
      "name": "Pizza Pasta",
      "place_id": "924322",
      "lon": "12.5583152",
      "address": "Pizza Pasta, Vesterbrogade, Sorte Hest, Vesterbro, K\u00f8benhavn, K\u00f8benhavns Kommune, Region Hovedstaden, 1615, Danmark, European Union",
      "lat": "55.6727141",
      "type": "restaurant",
      "class": "amenity"
   },
   {
      "name": "Jensen's B\u00f8fhus",
      "place_id": "947270",
      "lon": "12.5616617",
      "address": "Jensen's B\u00f8fhus, Vesterbrogade, Vesterbro, K\u00f8benhavn, K\u00f8benhavns Kommune, Region Hovedstaden, 1614, Danmark, European Union",
      "lat": "55.6733149",
      "type": "restaurant",
      "class": "amenity"
   },
   {
      "name": "Magasasa",
      "place_id": "16424360",
      "lon": "12.5627564",
      "address": "Magasasa, Istedgade, Vesterbro, K\u00f8benhavn, K\u00f8benhavns Kommune, Region Hovedstaden, 1707, Danmark, European Union",
      "lat": "55.6722844",
      "type": "restaurant",
      "class": "amenity"
   },
   {
      "name": "Sachi Sushi",
      "place_id": "968881",
      "lon": "12.5583269",
      "address": "Sachi Sushi, Vesterbrogade, Sorte Hest, Vesterbro, K\u00f8benhavn, K\u00f8benhavns Kommune, Region Hovedstaden, 1615, Danmark, European Union",
      "lat": "55.6729809",
      "type": "restaurant",
      "class": "amenity"
   },
   {
      "name": "Kebabish",
      "place_id": "1055273",
      "lon": "12.5604679",
      "address": "Kebabish, 13, Vesterbrogade, Vesterbro, K\u00f8benhavn, K\u00f8benhavns Kommune, Region Hovedstaden, 1614, Danmark, European Union",
      "lat": "55.6731242",
      "type": "restaurant",
      "class": "amenity"
   },
   {
      "name": "Kivi",
      "place_id": "8330436",
      "lon": "12.5620652",
      "address": "Kivi, Colbj\u00f8rnsensgade, Vesterbro, K\u00f8benhavn, K\u00f8benhavns Kommune, Region Hovedstaden, 1614, Danmark, European Union",
      "lat": "55.6726229",
      "type": "restaurant",
      "class": "amenity"
   },
   {
      "name": "Sticks'n'Sushi",
      "place_id": "864299",
      "lon": "12.5546642",
      "address": "Sticks'n'Sushi, 62, Istedgade, Sorte Hest, Vesterbro, K\u00f8benhavn, K\u00f8benhavns Kommune, Region Hovedstaden, 1724, Danmark, European Union",
      "lat": "55.6696624",
      "type": "restaurant",
      "class": "amenity"
   },
   {
      "name": "cofoco",
      "place_id": "6979213",
      "lon": "12.5584559",
      "address": "cofoco, Abel Cathrines Gade, Sorte Hest, Vesterbro, K\u00f8benhavn, K\u00f8benhavns Kommune, Region Hovedstaden, 1654, Danmark, European Union",
      "lat": "55.6718657",
      "type": "restaurant",
      "class": "amenity"
   },
   {
      "name": "Thai Esan",
      "place_id": "953516",
      "lon": "12.5602472",
      "address": "Thai Esan, Lille Istedgade, Sorte Hest, Vesterbro, K\u00f8benhavn, K\u00f8benhavns Kommune, Region Hovedstaden, 1654, Danmark, European Union",
      "lat": "55.670611",
      "type": "restaurant",
      "class": "amenity"
   },
   {
      "name": "Casetas Espana",
      "place_id": "1034935",
      "lon": "12.557537",
      "address": "Casetas Espana, Viktoriagade, Sorte Hest, Vesterbro, K\u00f8benhavn, K\u00f8benhavns Kommune, Region Hovedstaden, 1655, Danmark, European Union",
      "lat": "55.6718752",
      "type": "restaurant",
      "class": "amenity"
   },
   {
      "name": "Porn-Sak",
      "place_id": "921063",
      "lon": "12.5577022",
      "address": "Porn-Sak, 40, Halmtorvet, Sorte Hest, Vesterbro, K\u00f8benhavn, K\u00f8benhavns Kommune, Region Hovedstaden, 1712, Danmark, European Union",
      "lat": "55.6692654",
      "type": "restaurant",
      "class": "amenity"
   },
   {
      "name": "Restaurant Shezan",
      "place_id": "8771230",
      "lon": "12.5585764",
      "address": "Restaurant Shezan, Istedgade, Vesterbro, K\u00f8benhavn, K\u00f8benhavns Kommune, Region Hovedstaden, 1707, Danmark, European Union",
      "lat": "55.6709081",
      "type": "restaurant",
      "class": "amenity"
   },
   {
      "name": "Restaurant Indus",
      "place_id": "8307092",
      "lon": "12.5587373",
      "address": "Restaurant Indus, Istedgade, Vesterbro, K\u00f8benhavn, K\u00f8benhavns Kommune, Region Hovedstaden, 1707, Danmark, European Union",
      "lat": "55.6707659",
      "type": "restaurant",
      "class": "amenity"
   },
   {
      "name": "O Mo Nim",
      "place_id": "20299175",
      "lon": "12.5574514",
      "address": "O Mo Nim, Gasv\u00e6rksvej, Sorte Hest, Vesterbro, K\u00f8benhavn, K\u00f8benhavns Kommune, Region Hovedstaden, 1659, Danmark, European Union",
      "lat": "55.670727",
      "type": "restaurant",
      "class": "amenity"
   },
   {
      "name": "Ban Gaw",
      "place_id": "956914",
      "lon": "12.5573535",
      "address": "Ban Gaw, 44, Halmtorvet, Sorte Hest, Vesterbro, K\u00f8benhavn, K\u00f8benhavns Kommune, Region Hovedstaden, 1712, Danmark, European Union",
      "lat": "55.6690839",
      "type": "restaurant",
      "class": "amenity"
   },
   {
      "name": "Caf\u00e9 Midpoint",
      "place_id": "956892",
      "lon": "12.5604071",
      "address": "Caf\u00e9 Midpoint, Halmtorvet, Vesterbro, K\u00f8benhavn, K\u00f8benhavns Kommune, Region Hovedstaden, 1707, Danmark",
      "lat": "55.670572",
      "type": "restaurant",
      "class": "amenity"
   },
   {
      "name": "Spicylicious",
      "place_id": "8170320",
      "lon": "12.5583129",
      "address": "Spicylicious, Istedgade, Vesterbro, K\u00f8benhavn, K\u00f8benhavns Kommune, Region Hovedstaden, 1707, Danmark, European Union",
      "lat": "55.6705952",
      "type": "restaurant",
      "class": "amenity"
   },
   {
      "name": "Thai-Corner",
      "place_id": "6351927",
      "lon": "12.5576296",
      "address": "Thai-Corner, Istedgade, Vesterbro, K\u00f8benhavn, K\u00f8benhavns Kommune, Region Hovedstaden, 1707, Danmark, European Union",
      "lat": "55.6705983",
      "type": "restaurant",
      "class": "amenity"
   },
   {
      "name": "Pat\u00e9 Pat\u00e9",
      "place_id": "965567",
      "lon": "12.558676",
      "address": "Pat\u00e9 Pat\u00e9, 1, Slagterboderne, Sorte Hest, Vesterbro, K\u00f8benhavn, K\u00f8benhavns Kommune, Region Hovedstaden, 1716, Danmark, European Union",
      "lat": "55.669151",
      "type": "restaurant",
      "class": "amenity"
   },
   {
      "name": "Karriere",
      "place_id": "6838980",
      "lon": "12.5608012",
      "address": "Karriere, Fl\u00e6sketorvet, Vesterbro, K\u00f8benhavn, K\u00f8benhavns Kommune, Region Hovedstaden, 1715, Danmark, European Union",
      "lat": "55.6678594",
      "type": "restaurant",
      "class": "amenity"
   },
   {
      "name": "Brunello",
      "place_id": "981706",
      "lon": "12.5588759",
      "address": "Brunello, Abel Cathrines Gade, Sorte Hest, Vesterbro, K\u00f8benhavn, K\u00f8benhavns Kommune, Region Hovedstaden, 1654, Danmark, European Union",
      "lat": "55.6717155",
      "type": "restaurant",
      "class": "amenity"
   },
   {
      "name": "BioMio",
      "place_id": "7014930",
      "lon": "12.5588356",
      "address": "BioMio, Halmtorvet, Sorte Hest, Vesterbro, K\u00f8benhavn, K\u00f8benhavns Kommune, Region Hovedstaden, 1700, Danmark, European Union",
      "lat": "55.6692558",
      "type": "restaurant",
      "class": "amenity"
   },
   {
      "name": "Mother",
      "place_id": "14260353",
      "lon": "12.5575943",
      "address": "Mother, H\u00f8kerboderne, Sorte Hest, Vesterbro, K\u00f8benhavn, K\u00f8benhavns Kommune, Region Hovedstaden, 1712, Danmark, European Union",
      "lat": "55.6684218",
      "type": "restaurant",
      "class": "amenity"
   },